[{"slug": "auburn-al-university-dr", "city": "Auburn AL - E University Dr", "state": "", "addr": "", "lat": 32.6266, "lng": -85.4492}, {"slug": "the-villages-fl-county-rd-466", "city": "The Villages Fl County Rd 466", "state": "", "addr": "", "lat": 28.92782, "lng": -82.01195}, {"slug": "albertville-al-mathis-mill", "city": "Albertville", "state": "AL", "addr": "Mathis Mill Rd", "lat": 34.27881, "lng": -86.21029}, {"slug": "birch-run", "city": "Birmingham", "state": "AL", "addr": "Tattersall Blvd", "lat": 33.42158, "lng": -86.66989}, {"slug": "decatur-al-6th-ave", "city": "Decatur", "state": "AL", "addr": "6th Ave", "lat": 34.574, "lng": -86.97472}, {"slug": "fairhope-al-state-hwy-181", "city": "Fairhope", "state": "AL", "addr": "State Hwy 181 - Coming Soon!", "lat": 30.5478, "lng": -87.85303}, {"slug": "florence-al-cloverdale-rd", "city": "Florence", "state": "AL", "addr": "Cloverdale Rd", "lat": 34.8426, "lng": -87.6891}, {"slug": "foley-al-s-mckenzie-st", "city": "Foley", "state": "AL", "addr": "S McKenzie St", "lat": 30.36568, "lng": -87.68259}, {"slug": "hampton-cove-al-us-hwy-431", "city": "Hampton Cove", "state": "AL", "addr": "US Hwy 431", "lat": 34.664, "lng": -86.48673}, {"slug": "hoover-al-john-hawkins-pkwy", "city": "Hoover", "state": "AL", "addr": "John Hawkins Pkwy", "lat": 33.35463, "lng": -86.84822}, {"slug": "huntsville-al-memorial-pkwy-sw", "city": "Huntsville", "state": "AL", "addr": "Memorial Pkwy SW - Coming Soon!", "lat": 34.6442, "lng": -86.5676}, {"slug": "huntsville-al-winchester-rd", "city": "Huntsville", "state": "AL", "addr": "Winchester Rd", "lat": 34.81513, "lng": -86.5002}, {"slug": "madison-al-wall-triana-hwy", "city": "Madison", "state": "AL", "addr": "Wall Triana Hwy", "lat": 34.70715, "lng": -86.7504}, {"slug": "madison-us-hwy-72-w", "city": "Madison", "state": "AL", "addr": "Hwy 72 W", "lat": 34.75009, "lng": -86.76489}, {"slug": "mobile-al-airport-blvd", "city": "Mobile", "state": "AL", "addr": "Airport Blvd", "lat": 30.67657, "lng": -88.14567}, {"slug": "traverse-city-munson", "city": "Mobile", "state": "AL", "addr": "Airport Blvd", "lat": 30.67657, "lng": -88.14567}, {"slug": "orange-beach-al-canal-rd", "city": "Orange Beach", "state": "AL", "addr": "Canal Rd", "lat": 30.29078, "lng": -87.6216}, {"slug": "oxford-al-recreation-dr", "city": "Oxford", "state": "AL", "addr": "Recreation Dr", "lat": 33.60621, "lng": -85.82662}, {"slug": "phenix-city-hwy-280", "city": "Phenix City", "state": "AL", "addr": "Hwy 280", "lat": 32.4961, "lng": -85.0434}, {"slug": "bentonville-walton-blvd", "city": "Bentonville", "state": "AR", "addr": "Walton Blvd", "lat": 36.3611, "lng": -94.2164}, {"slug": "harrison-ar-hwy-43-n", "city": "Harrison", "state": "AR", "addr": "Hwy 43 N", "lat": 36.25621, "lng": -93.12223}, {"slug": "rogers-ar-new-hope-rd", "city": "Rogers", "state": "AR", "addr": "New Hope Rd", "lat": 36.31336, "lng": -94.17755}, {"slug": "avondale", "city": "Avondale", "state": "AZ", "addr": "N Avondale Blvd", "lat": 33.45723, "lng": -112.3059}, {"slug": "bullhead-city-az-hwy-95", "city": "Bullhead City", "state": "AZ", "addr": "Hwy 95", "lat": 35.05463, "lng": -114.59032}, {"slug": "burlington", "city": "Bullhead City", "state": "AZ", "addr": "Hwy 95", "lat": 35.05463, "lng": -114.59032}, {"slug": "casa-grande", "city": "Casa Grande", "state": "AZ", "addr": "E Florence Blvd", "lat": 32.87909, "lng": -111.68156}, {"slug": "racine-wi-douglas-ave", "city": "Casa Grande", "state": "AZ", "addr": "E Florence Blvd", "lat": 32.87909, "lng": -111.68156}, {"slug": "chandler-az-s-arizona-rd", "city": "Chandler", "state": "AZ", "addr": "S Arizona Ave", "lat": 33.28353, "lng": -111.84214}, {"slug": "rockford-riverside", "city": "Chandler", "state": "AZ", "addr": "W Ray Rd", "lat": 33.3198, "lng": -111.89658}, {"slug": "flagstaff-az-route-66", "city": "Flagstaff", "state": "AZ", "addr": "Route 66", "lat": 35.19604, "lng": -111.62708}, {"slug": "viera-fl-lake-andrew-dr", "city": "Flagstaff", "state": "AZ", "addr": "Route 66", "lat": 35.19604, "lng": -111.62708}, {"slug": "cape-girardeau", "city": "Gilbert", "state": "AZ", "addr": "Val Vista Dr", "lat": 33.2848, "lng": -111.7559}, {"slug": "carmel-in-carmel-dr", "city": "Gilbert", "state": "AZ", "addr": "Val Vista Dr", "lat": 33.2848, "lng": -111.7559}, {"slug": "gilbert-az-val-vista", "city": "Gilbert", "state": "AZ", "addr": "Val Vista Dr", "lat": 33.2848, "lng": -111.7559}, {"slug": "glendale-az", "city": "Glendale", "state": "AZ", "addr": "N 99th Ave", "lat": 33.50947, "lng": -112.27185}, {"slug": "kingman-az-airway-ave", "city": "Kingman", "state": "AZ", "addr": "Airway Ave", "lat": 35.22539, "lng": -114.03491}, {"slug": "lake-havasu-city-az-countryshire-ave", "city": "Lake Havasu City", "state": "AZ", "addr": "Countryshire Ave", "lat": 34.49141, "lng": -114.34998}, {"slug": "maricopa-az-john-wayne-pkwy", "city": "Maricopa", "state": "AZ", "addr": "N John Wayne Pkwy", "lat": 33.0649, "lng": -112.04855}, {"slug": "mesa", "city": "Mesa", "state": "AZ", "addr": "S Country Club Dr", "lat": 33.37997, "lng": -111.83955}, {"slug": "mesa-az-crismon-rd", "city": "Mesa", "state": "AZ", "addr": "S Crismon Rd", "lat": 33.39149, "lng": -111.61473}, {"slug": "mesa-az-e-mckellips-rd", "city": "Mesa", "state": "AZ", "addr": "E McKellips Rd", "lat": 33.45229, "lng": -111.79088}, {"slug": "mesa-az-greenfield", "city": "Mesa", "state": "AZ", "addr": "S Greenfield Rd", "lat": 33.38115, "lng": -111.73882}, {"slug": "payson-az-hwy-260", "city": "Payson", "state": "AZ", "addr": "E Hwy 260", "lat": 34.2413, "lng": -111.31057}, {"slug": "peoria-az", "city": "Peoria", "state": "AZ", "addr": "W Ludlow Dr", "lat": 33.61164, "lng": -112.23682}, {"slug": "peoria-az-deer-valley-rd", "city": "Peoria", "state": "AZ", "addr": "W Deer Valley Rd", "lat": 33.68203, "lng": -112.23917}, {"slug": "jensen-beach-fl-nw-federal-hwy", "city": "Phoenix", "state": "AZ", "addr": "E Camelback Rd", "lat": 33.50882, "lng": -112.0631}, {"slug": "phoenix-camelback", "city": "Phoenix", "state": "AZ", "addr": "E Camelback Rd", "lat": 33.50882, "lng": -112.0631}, {"slug": "phoeniz-deer-valley", "city": "Phoenix", "state": "AZ", "addr": "W Deer Valley Dr", "lat": 33.68322, "lng": -112.09796}, {"slug": "prescott-az-willow-creek", "city": "Prescott", "state": "AZ", "addr": "Willow Creek Road", "lat": 34.5954, "lng": -112.4651}, {"slug": "prescott-valley-stoneridge-az", "city": "Prescott Valley", "state": "AZ", "addr": "N Stoneridge Dr", "lat": 34.57987, "lng": -112.36108}, {"slug": "queen-creek-az-ocotillo-rd", "city": "Queen Creek", "state": "AZ", "addr": "W Ocotillo Rd", "lat": 33.24949, "lng": -111.56601}, {"slug": "queen-creek-az-s-ellsworth-rd", "city": "Queen Creek", "state": "AZ", "addr": "S Ellsworth Rd", "lat": 33.2337, "lng": -111.63371}, {"slug": "sahuarita-az-s-nogales-hwy", "city": "Sahuarita", "state": "AZ", "addr": "S Nogales Hwy", "lat": 31.9085, "lng": -110.9828}, {"slug": "sault-ste-marie-mi-i-75-business-spur", "city": "Scottsdale", "state": "AZ", "addr": "E Shea Blvd", "lat": 33.58274, "lng": -111.89365}, {"slug": "scottsdale-az", "city": "Scottsdale", "state": "AZ", "addr": "E Shea Blvd", "lat": 33.58274, "lng": -111.89365}, {"slug": "show-low-az-white-mountain-rd", "city": "Show Low", "state": "AZ", "addr": "White Mountain Rd", "lat": 34.2074, "lng": -110.0212}, {"slug": "sierra-vista-az", "city": "Sierra Vista", "state": "AZ", "addr": "S Hwy 92", "lat": 31.54932, "lng": -110.25805}, {"slug": "fort-meade-fl-charleston-ave", "city": "Surprise", "state": "AZ", "addr": "W Bell Rd", "lat": 33.63832, "lng": -112.40669}, {"slug": "tempe-az-southern-ave", "city": "Tempe", "state": "AZ", "addr": "E Southern Ave", "lat": 33.39347, "lng": -111.92985}, {"slug": "thatcher-az-w-main-st", "city": "Thatcher", "state": "AZ", "addr": "W Main St - Coming Soon!", "lat": 32.8487, "lng": -109.7558}, {"slug": "tucson-az-first-ave", "city": "Tucson", "state": "AZ", "addr": "N 1st Ave", "lat": 32.2943, "lng": -110.96052}, {"slug": "tucson-az-w-valencia-drive", "city": "Tucson", "state": "AZ", "addr": "W Valencia Rd", "lat": 32.1333, "lng": -111.008}, {"slug": "tucson-broadway", "city": "Tucson", "state": "AZ", "addr": "S Broadway Pl", "lat": 32.22053, "lng": -110.83197}, {"slug": "tucson-thornydale", "city": "Tucson", "state": "AZ", "addr": "N Thornydale Rd", "lat": 32.33218, "lng": -111.04676}, {"slug": "aurora-co-buckley-rd", "city": "Aurora", "state": "CO", "addr": "Buckley Rd", "lat": 39.68455, "lng": -104.79043}, {"slug": "castle-rock-co-meadows-pkwy", "city": "Castle Rock", "state": "CO", "addr": "Meadows Pkwy", "lat": 39.41024, "lng": -104.86925}, {"slug": "cedar-falls-ia", "city": "Castle Rock", "state": "CO", "addr": "Meadows Pkwy", "lat": 39.41024, "lng": -104.86925}, {"slug": "centennial-co-e-arapahoe", "city": "Centennial", "state": "CO", "addr": "E Arapahoe Rd", "lat": 39.59451, "lng": -104.86745}, {"slug": "colorado-spring-lake-plaza", "city": "Colorado Springs", "state": "CO", "addr": "Lake Plaza Dr", "lat": 38.79514, "lng": -104.80828}, {"slug": "colorado-springs-academy", "city": "Colorado Springs", "state": "CO", "addr": "New Center Pt", "lat": 38.87305, "lng": -104.71573}, {"slug": "colorado-springs-new-center-point", "city": "Colorado Springs", "state": "CO", "addr": "New Center Pt", "lat": 38.87305, "lng": -104.71573}, {"slug": "denver-co-n-tower-rd", "city": "Denver", "state": "CO", "addr": "N Tower Rd", "lat": 39.7884, "lng": -104.7725}, {"slug": "falcon", "city": "Falcon", "state": "CO", "addr": "N Meridian Rd", "lat": 38.93792, "lng": -104.6115}, {"slug": "fargo-13th", "city": "Falcon", "state": "CO", "addr": "N Meridian Rd", "lat": 38.93792, "lng": -104.6115}, {"slug": "fountain-co", "city": "Fountain", "state": "CO", "addr": "Fountain Mesa Rd", "lat": 38.71541, "lng": -104.70104}, {"slug": "glenwood-springs-co-hwy-6", "city": "Glenwood Springs", "state": "CO", "addr": "Hwy 6", "lat": 39.56181, "lng": -107.35839}, {"slug": "grand-island-ne-hwy-281", "city": "Grand Junction", "state": "CO", "addr": "24 1/2 Road", "lat": 39.08889, "lng": -108.59831}, {"slug": "grand-junction-co-24-12-road", "city": "Grand Junction", "state": "CO", "addr": "24 1/2 Road", "lat": 39.08889, "lng": -108.59831}, {"slug": "greeley", "city": "Greeley", "state": "CO", "addr": "W 29th St", "lat": 40.38744, "lng": -104.73572}, {"slug": "johnstown", "city": "Johnstown", "state": "CO", "addr": "I-25 and Hwy 34", "lat": 40.40659, "lng": -104.98078}, {"slug": "lakewood-co-webster", "city": "Lakewood", "state": "CO", "addr": "S Wadsworth Blvd", "lat": 39.68018, "lng": -105.08082}, {"slug": "littleton-co-s-broadway", "city": "Littleton", "state": "CO", "addr": "S Broadway", "lat": 39.58216, "lng": -104.98797}, {"slug": "loveland-co-eisenhower-blvd", "city": "Loveland", "state": "CO", "addr": "Eisenhower Blvd", "lat": 40.40682, "lng": -105.10046}, {"slug": "montrose-co-wolverine-dr", "city": "Montrose", "state": "CO", "addr": "Wolverine Dr", "lat": 38.44554, "lng": -107.86736}, {"slug": "parker-co", "city": "Parker", "state": "CO", "addr": "E Mainstreet", "lat": 39.51865, "lng": -104.77428}, {"slug": "thornton", "city": "Thornton", "state": "CO", "addr": "Washington St", "lat": 39.87493, "lng": -104.9771}, {"slug": "westminster-co-72nd-ave", "city": "Westminster", "state": "CO", "addr": "W 72nd Ave", "lat": 39.82685, "lng": -105.05499}, {"slug": "apopka-fl-semoran-blvd", "city": "Apopka", "state": "FL", "addr": "Semoran Blvd", "lat": 28.67226, "lng": -81.48026}, {"slug": "arcadia-fl-se-hwy-70", "city": "Arcadia", "state": "FL", "addr": "SE HWY 70", "lat": 27.20844, "lng": -81.83445}, {"slug": "avon-park-fl-us-hwy-27", "city": "Avon Park", "state": "FL", "addr": "US Hwy 27", "lat": 27.60749, "lng": -81.51508}, {"slug": "bartow-fl-n-holland-pkwy", "city": "Bartow", "state": "FL", "addr": "N Holland Pkwy - Coming Soon!", "lat": 27.9087, "lng": -81.8293}, {"slug": "bonita-springs-fl-saradrienne-ln", "city": "Bonita Springs", "state": "FL", "addr": "Bonita Beach Rd SE", "lat": 26.33082, "lng": -81.75643}, {"slug": "bradenton-fl-64-east", "city": "Bradenton", "state": "FL", "addr": "SR 64 East", "lat": 27.4834, "lng": -82.41245}, {"slug": "bradenton-fl-cortez-rd", "city": "Bradenton", "state": "FL", "addr": "Cortez Rd W", "lat": 27.46203, "lng": -82.59757}, {"slug": "bradenton-fl-fl64e", "city": "Bradenton", "state": "FL", "addr": "East State Rd 64", "lat": 27.49755, "lng": -82.50362}, {"slug": "bradenton-fl-ranch-lake-blvd", "city": "Bradenton", "state": "FL", "addr": "Ranch Lake Blvd", "lat": 27.43945, "lng": -82.45765}, {"slug": "sheboygan-taylor-drive", "city": "Bradenton", "state": "FL", "addr": "Cortez Rd W", "lat": 27.46203, "lng": -82.59757}, {"slug": "tallahassee-fl-wolfpack-way", "city": "Bradfordville", "state": "FL", "addr": "Thomasville Rd", "lat": 30.5678, "lng": -84.21172}, {"slug": "brandon-fl-brandon-blvd", "city": "Brandon", "state": "FL", "addr": "E Brandon Blvd", "lat": 27.9381, "lng": -82.2779}, {"slug": "brandon-fl-falkenburg-rd", "city": "Brandon", "state": "FL", "addr": "S Falkenburg Rd", "lat": 27.92644, "lng": -82.33737}, {"slug": "brooksville-fl-cortez-blvd", "city": "Brooksville", "state": "FL", "addr": "Cortez Blvd", "lat": 28.53412, "lng": -82.52029}, {"slug": "bushnell-fl-w-county-rd-48", "city": "Bushnell", "state": "FL", "addr": "W County Rd 48", "lat": 28.6692, "lng": -82.13637}, {"slug": "cape-coral-fl", "city": "Cape Coral", "state": "FL", "addr": "Cape Coral Pkwy E", "lat": 26.56306, "lng": -81.94319}, {"slug": "cape-coral-fl-ne-pine-island", "city": "Cape Coral", "state": "FL", "addr": "NE Pine Island Rd", "lat": 26.68186, "lng": -81.90716}, {"slug": "cape-coral-skyline-blvd", "city": "Cape Coral", "state": "FL", "addr": "Skyline Blvd", "lat": 26.60504, "lng": -81.99136}, {"slug": "carrollwood-fl-dale-mabry-hwy", "city": "Carrollwood", "state": "FL", "addr": "Dale Mabry Hwy", "lat": 28.0478, "lng": -82.5051}, {"slug": "clearwater-fl-gulf-to-bay-blvd", "city": "Clearwater", "state": "FL", "addr": "Gulf to Bay Blvd", "lat": 27.96098, "lng": -82.7539}, {"slug": "clermont-fl", "city": "Clermont", "state": "FL", "addr": "Johns Lake Rd", "lat": 28.52677, "lng": -81.73112}, {"slug": "columbus", "city": "Clermont", "state": "FL", "addr": "Johns Lake Rd", "lat": 28.52677, "lng": -81.73112}, {"slug": "clewiston-fl-sugarland-hwy", "city": "Clewiston", "state": "FL", "addr": "Sugarland Hwy", "lat": 26.7538, "lng": -80.95085}, {"slug": "cooper-city-university-dr", "city": "Cooper City", "state": "FL", "addr": "N University Dr", "lat": 26.0402, "lng": -80.2505}, {"slug": "davenport-fl-posner-blvd", "city": "Davenport", "state": "FL", "addr": "Posner Blvd", "lat": 28.2245, "lng": -81.6442}, {"slug": "daytona-beach-fl-oulet-blvd", "city": "Daytona Beach", "state": "FL", "addr": "Outlet Blvd", "lat": 29.22013, "lng": -81.09663}, {"slug": "deland-fl-summit-oak-pl", "city": "Deland", "state": "FL", "addr": "N Woodland Blvd", "lat": 29.05664, "lng": -81.30495}, {"slug": "deltona-fl-howland-blvd", "city": "Deltona", "state": "FL", "addr": "Howland Blvd - Coming Soon!", "lat": 28.94726, "lng": -81.23965}, {"slug": "destin-fl-hwy98", "city": "Destin", "state": "FL", "addr": "Hwy 98 W", "lat": 30.38571, "lng": -86.38138}, {"slug": "estero-fl", "city": "Estero", "state": "FL", "addr": "Corkscrew Rd", "lat": 26.43182, "lng": -81.78545}, {"slug": "estero-fl-murano-del-lago-dr", "city": "Estero", "state": "FL", "addr": "S Tamiami Trail", "lat": 26.39223, "lng": -81.80925}, {"slug": "fort-atkinson", "city": "Fort Meade", "state": "FL", "addr": "Charleston Ave", "lat": 27.75295, "lng": -81.80113}, {"slug": "edgerton-newville", "city": "Fort Myers", "state": "FL", "addr": "Six Mile Cypress Pkwy", "lat": 26.60736, "lng": -81.8119}, {"slug": "fort-myers-fl-cleveland", "city": "Fort Myers", "state": "FL", "addr": "S Cleveland Ave", "lat": 26.55834, "lng": -81.87113}, {"slug": "fort-myers-fl-palm-beach-blvd", "city": "Fort Myers", "state": "FL", "addr": "Palm Beach Blvd", "lat": 26.69977, "lng": -81.75976}, {"slug": "fort-myers-fl-sixmilecypresspkwy", "city": "Fort Myers", "state": "FL", "addr": "Six Mile Cypress Pkwy", "lat": 26.60736, "lng": -81.8119}, {"slug": "ft-myers-university-plaza", "city": "Fort Myers", "state": "FL", "addr": "University Plaza Dr", "lat": 26.4915, "lng": -81.78423}, {"slug": "scottsbluff", "city": "Fort Myers", "state": "FL", "addr": "Six Mile Cypress Pkwy", "lat": 26.60736, "lng": -81.8119}, {"slug": "fort-walton-beach-fl", "city": "Fort Walton Beach", "state": "FL", "addr": "Green Acres Rd", "lat": 30.4564, "lng": -86.639}, {"slug": "gainesville-fl-sw-35th-blvd", "city": "Gainesville", "state": "FL", "addr": "SW 30th Pl", "lat": 29.62573, "lng": -82.38436}, {"slug": "haines-city-fl-hwy-27", "city": "Haines City", "state": "FL", "addr": "N US Hwy 27", "lat": 28.1391, "lng": -81.63687}, {"slug": "indianapolis-in-s-east-st", "city": "Inverness", "state": "FL", "addr": "W Main Street", "lat": 28.8355, "lng": -82.3516}, {"slug": "inverness-fl-main-st", "city": "Inverness", "state": "FL", "addr": "W Main Street", "lat": 28.8355, "lng": -82.3516}, {"slug": "jacksonville-fl-gate-pkwy", "city": "Jacksonville", "state": "FL", "addr": "Gate Pkwy", "lat": 30.236, "lng": -81.5189}, {"slug": "jacksonville-fl-hyatt-rd", "city": "Jacksonville", "state": "FL", "addr": "Max Leggett Pkwy", "lat": 30.49127, "lng": -81.62588}, {"slug": "jacksonville-fl-monument-rd", "city": "Jacksonville", "state": "FL", "addr": "Monument Rd", "lat": 30.32375, "lng": -81.54634}, {"slug": "jacksonville-fl-parramore-rd", "city": "Jacksonville", "state": "FL", "addr": "Collins Rd", "lat": 30.2038, "lng": -81.7575}, {"slug": "mason-city", "city": "Jacksonville", "state": "FL", "addr": "Gate Pkwy", "lat": 30.236, "lng": -81.5189}, {"slug": "jupiter-fl-military-trl", "city": "Jupiter", "state": "FL", "addr": "Military Trl", "lat": 26.9204, "lng": -80.10274}, {"slug": "kissimmee-fl-irlo-bronson-memorial-hwy", "city": "Kissimmee", "state": "FL", "addr": "W Irlo Bronson Memorial Hwy", "lat": 28.3462, "lng": -81.65089}, {"slug": "kissimmee-fl-orange-blossom", "city": "Kissimmee", "state": "FL", "addr": "N Orange Blossom Trl", "lat": 28.34124, "lng": -81.4043}, {"slug": "labelle-fl-lashley-st", "city": "LaBelle", "state": "FL", "addr": "Lashley St", "lat": 26.76088, "lng": -81.44834}, {"slug": "naples-fl-immokalee-rd", "city": "Lake Nona", "state": "FL", "addr": "Narcoossee Rd", "lat": 28.39068, "lng": -81.24497}, {"slug": "narcoossee-rd-orlando-fl", "city": "Lake Nona", "state": "FL", "addr": "Narcoossee Rd", "lat": 28.39068, "lng": -81.24497}, {"slug": "lake-park-fl-congress-ave", "city": "Lake Park", "state": "FL", "addr": "Congress Ave", "lat": 26.79925, "lng": -80.0844}, {"slug": "lakeland-fl-s-florida-ave", "city": "Lakeland", "state": "FL", "addr": "Florida Ave", "lat": 27.9486, "lng": -81.9691}, {"slug": "lakeland-fl-us-98", "city": "Lakeland", "state": "FL", "addr": "US Hwy 98 N", "lat": 28.1107, "lng": -81.9742}, {"slug": "oak-lawn-il-cicero-ave", "city": "Lakeland", "state": "FL", "addr": "US Hwy 98 N", "lat": 28.1107, "lng": -81.9742}, {"slug": "land-o-lakes-fl-blvd", "city": "Land O' Lakes", "state": "FL", "addr": "Land O' Lakes Blvd", "lat": 28.27071, "lng": -82.47969}, {"slug": "largo-fl", "city": "Largo", "state": "FL", "addr": "E Bay Dr", "lat": 27.91699, "lng": -82.75063}, {"slug": "lecanto-fl-lecanto-hwy", "city": "Lecanto", "state": "FL", "addr": "North Lecanto Highway", "lat": 28.8885, "lng": -82.487}, {"slug": "lehigh-acres-fl-lee-blvd", "city": "Lehigh Acres", "state": "FL", "addr": "Lee Blvd", "lat": 26.61433, "lng": -81.66426}, {"slug": "loxahatchee-groves-southern-blvd", "city": "Loxahatchee Groves", "state": "FL", "addr": "Southern Blvd", "lat": 26.6838, "lng": -80.2881}, {"slug": "lutz-fl-walmart-way", "city": "Lutz", "state": "FL", "addr": "Walmart Way", "lat": 28.1764, "lng": -82.4644}, {"slug": "margate-fl-copans-rd", "city": "Margate", "state": "FL", "addr": "Copans Rd", "lat": 26.25389, "lng": -80.19964}, {"slug": "medford-wi-casement-ct", "city": "Melbourne", "state": "FL", "addr": "N Wickham Rd", "lat": 28.18358, "lng": -80.67133}, {"slug": "melbourne-fl-n-wickham-rd", "city": "Melbourne", "state": "FL", "addr": "N Wickham Rd", "lat": 28.18358, "lng": -80.67133}, {"slug": "middleburg-fl-blanding-blvd", "city": "Middleburg", "state": "FL", "addr": "Blanding Blvd", "lat": 30.1054, "lng": -81.8259}, {"slug": "milton-fl-us-hwy-90", "city": "Milton", "state": "FL", "addr": "US Hwy 90", "lat": 30.61032, "lng": -87.05632}, {"slug": "mt-dora-us-highway-441", "city": "Mt. Dora", "state": "FL", "addr": "US Hwy 441", "lat": 28.82341, "lng": -81.64133}, {"slug": "naples-fl-airport-pulling", "city": "Naples", "state": "FL", "addr": "Airport Pulling Rd N", "lat": 26.21639, "lng": -81.76891}, {"slug": "naples-fl-tamiami-trl", "city": "Naples", "state": "FL", "addr": "Tamiami Trl E", "lat": 26.10539, "lng": -81.7473}, {"slug": "navarre-fl", "city": "Navarre", "state": "FL", "addr": "Navarre Pkwy", "lat": 30.40376, "lng": -86.85512}, {"slug": "new-smyrna-beach-state-road-44", "city": "New Smyrna Beach", "state": "FL", "addr": "State Road 44", "lat": 29.01349, "lng": -80.97742}, {"slug": "north-port-fl-tuscola-blvd", "city": "North Port", "state": "FL", "addr": "Tuscola Blvd", "lat": 27.04067, "lng": -82.22535}, {"slug": "ocala-fl-silver-springs-blvd", "city": "Ocala", "state": "FL", "addr": "W Silver Springs Blvd", "lat": 29.18696, "lng": -82.18333}, {"slug": "ocala-fl-sw-college-rd", "city": "Ocala", "state": "FL", "addr": "SW College Road", "lat": 29.1344, "lng": -82.2001}, {"slug": "lake-zurich", "city": "Okeechobee", "state": "FL", "addr": "NE Park St - Coming Soon!", "lat": 27.24432, "lng": -80.81772}, {"slug": "orlando-fl-east-colonial-dr", "city": "Orlando", "state": "FL", "addr": "E Colonial Dr", "lat": 28.56461, "lng": -81.18414}, {"slug": "orlando-fl-millenia-blvd", "city": "Orlando", "state": "FL", "addr": "Millenia Blvd", "lat": 28.49462, "lng": -81.42198}, {"slug": "ormond-beach-fl-granada-blvd", "city": "Ormond Beach", "state": "FL", "addr": "W Granada Blvd", "lat": 29.27955, "lng": -81.07363}, {"slug": "oviedo-fl-mitchell-hammock", "city": "Oviedo", "state": "FL", "addr": "W Mitchell Hammock Rd", "lat": 28.65608, "lng": -81.22266}, {"slug": "owensboro", "city": "Oviedo", "state": "FL", "addr": "W Mitchell Hammock Rd", "lat": 28.65608, "lng": -81.22266}, {"slug": "palm-coast-fl-e-hwy-100", "city": "Palm Coast", "state": "FL", "addr": "E Hwy 100", "lat": 29.47488, "lng": -81.22027}, {"slug": "palmetto-fl-us-301", "city": "Palmetto", "state": "FL", "addr": "US Hwy 301", "lat": 27.52075, "lng": -82.54573}, {"slug": "panama-city-fl-s-tyndall-pkwy", "city": "Panama City", "state": "FL", "addr": "S Tyndall Pkwy", "lat": 30.13685, "lng": -85.5915}, {"slug": "panama-city-beach-fl-panama-city-beach-pkwy", "city": "Panama City Beach", "state": "FL", "addr": "Panama City Beach Pkwy", "lat": 30.19674, "lng": -85.8148}, {"slug": "parrish-fl-us-hwy-301", "city": "Parrish", "state": "FL", "addr": "US Hwy 301", "lat": 27.55619, "lng": -82.45273}, {"slug": "pensacola-fl-bayou-blvd", "city": "Pensacola", "state": "FL", "addr": "Bayou Blvd", "lat": 30.46759, "lng": -87.20499}, {"slug": "pensacola-fl-boesch-ln", "city": "Pensacola", "state": "FL", "addr": "Pine Forest Rd", "lat": 30.5243, "lng": -87.31416}, {"slug": "pinellas-park-fl-park-blvd", "city": "Pinellas Park", "state": "FL", "addr": "Park Blvd N", "lat": 27.83878, "lng": -82.69822}, {"slug": "plant-city-n-park-rd-fl", "city": "Plant City", "state": "FL", "addr": "N Park Rd", "lat": 28.03331, "lng": -82.10558}, {"slug": "platte-city-mo-prairie-view", "city": "Plant City", "state": "FL", "addr": "N Park Rd", "lat": 28.03331, "lng": -82.10558}, {"slug": "port-charlotte-el-jobean-rd", "city": "Port Charlotte", "state": "FL", "addr": "El Jobean Rd", "lat": 27.01069, "lng": -82.15064}, {"slug": "port-orange-fl-dunlawton", "city": "Port Orange", "state": "FL", "addr": "Dunlawton Ave", "lat": 29.11121, "lng": -81.02489}, {"slug": "port-richey-fl", "city": "Port Richey", "state": "FL", "addr": "US Hwy 19", "lat": 28.28016, "lng": -82.71838}, {"slug": "port-st-lucie-fl-tradition-pkwy", "city": "Port St. Lucie", "state": "FL", "addr": "SW Tradition Pkwy", "lat": 27.26389, "lng": -80.4343}, {"slug": "pueblo-co", "city": "Punta Gorda", "state": "FL", "addr": "Jones Loop Rd", "lat": 26.89526, "lng": -82.0104}, {"slug": "punta-gorda-loop-road", "city": "Punta Gorda", "state": "FL", "addr": "Jones Loop Rd", "lat": 26.89526, "lng": -82.0104}, {"slug": "riverview-fl-big-bend-rd", "city": "Riverview", "state": "FL", "addr": "Big Bend Rd", "lat": 27.79184, "lng": -82.33113}, {"slug": "riverview-fl-boyette-rd", "city": "Riverview", "state": "FL", "addr": "Boyette Rd", "lat": 27.8541, "lng": -82.3046}, {"slug": "san-antonio-fl-state-rd-52", "city": "Sanford", "state": "FL", "addr": "Orlando Dr", "lat": 28.76462, "lng": -81.28448}, {"slug": "sanford-fl-orlando-dr", "city": "Sanford", "state": "FL", "addr": "Orlando Dr", "lat": 28.76462, "lng": -81.28448}, {"slug": "daleville-walnut-st", "city": "Sarasota", "state": "FL", "addr": "S Tamiami Trl", "lat": 27.24957, "lng": -82.51413}, {"slug": "sarasota-fl-cattlemen", "city": "Sarasota", "state": "FL", "addr": "Cattlemen Rd", "lat": 27.33611, "lng": -82.45093}, {"slug": "sarasota-fl-tamiami-trl", "city": "Sarasota", "state": "FL", "addr": "S Tamiami Trl", "lat": 27.24957, "lng": -82.51413}, {"slug": "sarasota-fl-university", "city": "Sarasota", "state": "FL", "addr": "S Tamiami Trl", "lat": 27.24957, "lng": -82.51413}, {"slug": "sauk-city", "city": "Sarasota", "state": "FL", "addr": "S Tamiami Trl", "lat": 27.24957, "lng": -82.51413}, {"slug": "seminole-fl-park-blvd", "city": "Seminole", "state": "FL", "addr": "Park Blvd", "lat": 27.83997, "lng": -82.78384}, {"slug": "spring-hill-fl-county-line-rd", "city": "Spring Hill", "state": "FL", "addr": "County Line Rd", "lat": 28.4332, "lng": -82.5458}, {"slug": "st-augustine-fl-stratton-blvd", "city": "St. Augustine", "state": "FL", "addr": "Stratton Blvd", "lat": 29.91502, "lng": -81.38656}, {"slug": "st-augustine-hwy-1", "city": "St. Augustine", "state": "FL", "addr": "US Hwy 1", "lat": 29.83115, "lng": -81.32301}, {"slug": "st-petersburg-fl-4th-st", "city": "St. Petersburg", "state": "FL", "addr": "4th St N", "lat": 27.85493, "lng": -82.63921}, {"slug": "st-robert", "city": "St. Petersburg", "state": "FL", "addr": "34th St N", "lat": 27.78619, "lng": -82.6789}, {"slug": "stuart-fl-kanner-hwy", "city": "Stuart", "state": "FL", "addr": "S Kanner Hwy", "lat": 27.17445, "lng": -80.25224}, {"slug": "tallahassee-fl-executive-center-dr", "city": "Tallahassee", "state": "FL", "addr": "Monroe St", "lat": 30.4736, "lng": -84.29236}, {"slug": "tallahassee-fl-monroe-st", "city": "Tallahassee", "state": "FL", "addr": "Monroe St", "lat": 30.4736, "lng": -84.29236}, {"slug": "tamarac-fl-w-commercial-blvd", "city": "Tampa", "state": "FL", "addr": "W Hillsborough Ave", "lat": 27.99619, "lng": -82.57217}, {"slug": "tampa-fl-citrus-park-dr", "city": "Tampa", "state": "FL", "addr": "Citrus Park Dr", "lat": 28.06557, "lng": -82.57745}, {"slug": "tampa-fl-hillsborough", "city": "Tampa", "state": "FL", "addr": "W Hillsborough Ave", "lat": 27.99619, "lng": -82.57217}, {"slug": "titusville-fl-cheney-highway", "city": "Titusville", "state": "FL", "addr": "Cheney Hwy", "lat": 28.5576, "lng": -80.83784}, {"slug": "ofallon-il", "city": "Trinity", "state": "FL", "addr": "State Rd 54", "lat": 28.19076, "lng": -82.60782}, {"slug": "phoenix-cave-creek", "city": "Trinity", "state": "FL", "addr": "State Rd 54", "lat": 28.19076, "lng": -82.60782}, {"slug": "trinity-fl-fl54", "city": "Trinity", "state": "FL", "addr": "State Rd 54", "lat": 28.19076, "lng": -82.60782}, {"slug": "wixom-mi", "city": "Trinity", "state": "FL", "addr": "State Rd 54", "lat": 28.19076, "lng": -82.60782}, {"slug": "venice-fl-tamiami-trail", "city": "Venice", "state": "FL", "addr": "Tamiami Trail", "lat": 27.0721, "lng": -82.4224}, {"slug": "venice-fl-times-cir", "city": "Venice", "state": "FL", "addr": "Times Cir", "lat": 27.10506, "lng": -82.38371}, {"slug": "wesley-chapel-fl-sun-vista-dr", "city": "Wesley Chapel", "state": "FL", "addr": "Sun Vista Dr", "lat": 28.19113, "lng": -82.39484}, {"slug": "wesley-chapel-fl-wiregrass", "city": "Wesley Chapel", "state": "FL", "addr": "Wiregrass", "lat": 28.1917, "lng": -82.3403}, {"slug": "west-melbourne-palm-bay-rd", "city": "West Melbourne", "state": "FL", "addr": "Palm Bay Rd", "lat": 28.03617, "lng": -80.66031}, {"slug": "wildwood-fl-sundance-trail", "city": "Wildwood", "state": "FL", "addr": "Sundance Trail", "lat": 28.86596, "lng": -82.01486}, {"slug": "winter-garden-fl-colonial-dr", "city": "Winter Garden", "state": "FL", "addr": "W Colonial Dr", "lat": 28.5516, "lng": -81.58582}, {"slug": "winter-haven-cypress-gardens-blvd", "city": "Winter Haven", "state": "FL", "addr": "Cypress Gardens Blvd", "lat": 28.00361, "lng": -81.71524}, {"slug": "ypsilanti-mi-s-huron-st", "city": "Yulee", "state": "FL", "addr": "State Road", "lat": 30.6286, "lng": -81.5548}, {"slug": "yulee-fl-state-road", "city": "Yulee", "state": "FL", "addr": "State Road", "lat": 30.6286, "lng": -81.5548}, {"slug": "zephyrhills-fl-gall-blvd", "city": "Zephyrhills", "state": "FL", "addr": "Gall Blvd", "lat": 28.25039, "lng": -82.18764}, {"slug": "acworth-ga-hwy-92", "city": "Acworth", "state": "GA", "addr": "Hwy 92", "lat": 34.0848, "lng": -84.6554}, {"slug": "bethlehem-ga-loganville-hwy", "city": "Bethlehem", "state": "GA", "addr": "Loganville Hwy", "lat": 33.94981, "lng": -83.75137}, {"slug": "braselton-ga-old-winder", "city": "Braselton", "state": "GA", "addr": "Old Winder Hwy", "lat": 34.11971, "lng": -83.82639}, {"slug": "buford-ga-buford-dr", "city": "Buford", "state": "GA", "addr": "Buford Dr", "lat": 34.05347, "lng": -83.99523}, {"slug": "cartersville-ga-hwy-20", "city": "Cartersville", "state": "GA", "addr": "Hwy 20", "lat": 34.20676, "lng": -84.79665}, {"slug": "columbus-midland-commons-blvd", "city": "Columbus", "state": "GA", "addr": "Midland Commons Blvd", "lat": 32.5437, "lng": -84.8756}, {"slug": "commerce-ga-hwy-441", "city": "Commerce", "state": "GA", "addr": "Hwy 441", "lat": 34.2605, "lng": -83.46519}, {"slug": "dawsonville-ga-center-ln", "city": "Dawsonville", "state": "GA", "addr": "S 400 Center Ln", "lat": 34.36094, "lng": -84.04151}, {"slug": "gainesville-ga-dawsonville-hwy", "city": "Gainesville", "state": "GA", "addr": "Dawsonville Hwy", "lat": 34.30466, "lng": -83.85971}, {"slug": "gretna-ne-191-st", "city": "Grovetown", "state": "GA", "addr": "Gateway Blvd", "lat": 33.47953, "lng": -82.19655}, {"slug": "grovetown-ga-gateway-blvd", "city": "Grovetown", "state": "GA", "addr": "Gateway Blvd", "lat": 33.47953, "lng": -82.19655}, {"slug": "canton-ga-hickory-flat-hwy", "city": "Hickory Flat-Canton", "state": "GA", "addr": "Hickory Flat Hwy", "lat": 34.17031, "lng": -84.41484}, {"slug": "jasper-ga-noah-dr", "city": "Jasper", "state": "GA", "addr": "Hwy 515", "lat": 34.47283, "lng": -84.46194}, {"slug": "jefferson-ga-marketplace-wy", "city": "Jefferson", "state": "GA", "addr": "Marketplace Wy - Coming Soon!", "lat": 34.11294, "lng": -83.59959}, {"slug": "kennesaw-ga-due-west-road", "city": "Kennesaw", "state": "GA", "addr": "Cobb Pkwy N", "lat": 34.01414, "lng": -84.61511}, {"slug": "lawrenceville-ga-scenic-hwy-sw", "city": "Lawrenceville", "state": "GA", "addr": "Scenic Hwy S", "lat": 33.90647, "lng": -84.00413}, {"slug": "sebring-fl-us-hwy-27", "city": "Lawrenceville", "state": "GA", "addr": "Scenic Hwy S", "lat": 33.90647, "lng": -84.00413}, {"slug": "macon-ga-northside-dr", "city": "Macon", "state": "GA", "addr": "Northside Dr", "lat": 32.89631, "lng": -83.69097}, {"slug": "mcdonough-ga-hwy-81", "city": "McDonough", "state": "GA", "addr": "Hwy 81 W", "lat": 33.42653, "lng": -84.18467}, {"slug": "newnan-ga-newnan-crossing-byp", "city": "Newnan", "state": "GA", "addr": "Newnan Crossing Byp", "lat": 33.39011, "lng": -84.7619}, {"slug": "pooler-ga-tanger-blvd", "city": "Pooler", "state": "GA", "addr": "Tanger Outlet Blvd", "lat": 32.13655, "lng": -81.2466}, {"slug": "champlin", "city": "Savannah", "state": "GA", "addr": "W Montgomery Crossroad", "lat": 32.00108, "lng": -81.13628}, {"slug": "savannah-ga-montgomery-cross-rd", "city": "Savannah", "state": "GA", "addr": "W Montgomery Crossroad", "lat": 32.00108, "lng": -81.13628}, {"slug": "sugar-hill-ga-peachtree-industrial", "city": "Sugar Hill", "state": "GA", "addr": "Peachtree Industrial Blvd", "lat": 34.08027, "lng": -84.05824}, {"slug": "valdosta-ga-n-valdosta-rd", "city": "Valdosta", "state": "GA", "addr": "N Valdosta Rd", "lat": 30.89657, "lng": -83.32779}, {"slug": "warner-robins-ga-hwy-96", "city": "Warner Robins", "state": "GA", "addr": "Hwy 96", "lat": 32.55223, "lng": -83.66133}, {"slug": "warrensburg-mo-simpson-dr", "city": "Warner Robins", "state": "GA", "addr": "Hwy 96", "lat": 32.55223, "lng": -83.66133}, {"slug": "portage", "city": "Woodstock", "state": "GA", "addr": "Hwy 92", "lat": 34.0885, "lng": -84.4912}, {"slug": "woodstock-ga-hwy-92", "city": "Woodstock", "state": "GA", "addr": "Hwy 92", "lat": 34.0885, "lng": -84.4912}, {"slug": "altoona", "city": "Ames", "state": "IA", "addr": "Gilchrist St", "lat": 42.02383, "lng": -93.61874}, {"slug": "ankeny", "city": "Ankeny", "state": "IA", "addr": "SE Delaware Ave", "lat": 41.70768, "lng": -93.5806}, {"slug": "ankeny-ia-nw36th-st", "city": "Ankeny", "state": "IA", "addr": "NW 36th St", "lat": 41.76043, "lng": -93.60406}, {"slug": "berwyn", "city": "Bettendorf", "state": "IA", "addr": "Spruce Hills Dr", "lat": 41.54972, "lng": -90.5016}, {"slug": "bettendorf-ia", "city": "Bettendorf", "state": "IA", "addr": "Spruce Hills Dr", "lat": 41.54972, "lng": -90.5016}, {"slug": "burlington-ia", "city": "Burlington", "state": "IA", "addr": "Lawrence Dr", "lat": 40.79896, "lng": -91.14086}, {"slug": "carroll-ia", "city": "Carroll", "state": "IA", "addr": "W US Hwy 30", "lat": 42.0666, "lng": -94.872}, {"slug": "cedar-rapids", "city": "Cedar Rapids", "state": "IA", "addr": "Edgewood Rd SW", "lat": 41.95463, "lng": -91.71552}, {"slug": "cedar-rapids-ia-earhart-ln-sw", "city": "Cedar Rapids", "state": "IA", "addr": "Wright Brothers Blvd", "lat": 41.89006, "lng": -91.66811}, {"slug": "clear-lake", "city": "Clear Lake", "state": "IA", "addr": "N 25th St", "lat": 43.14733, "lng": -93.35879}, {"slug": "clinton", "city": "Clinton", "state": "IA", "addr": "Lincoln Way", "lat": 41.81477, "lng": -90.24895}, {"slug": "coralville", "city": "Coralville", "state": "IA", "addr": "Heartland Pl", "lat": 41.70015, "lng": -91.60919}, {"slug": "council-bluffs", "city": "Council Bluffs", "state": "IA", "addr": "S 24th St", "lat": 41.22964, "lng": -95.87861}, {"slug": "davenport-jersey", "city": "Davenport", "state": "IA", "addr": "Jersey Ridge Rd", "lat": 41.57566, "lng": -90.54236}, {"slug": "davenport-kimberly-road", "city": "Davenport", "state": "IA", "addr": "Jersey Ridge Rd", "lat": 41.57566, "lng": -90.54236}, {"slug": "decorah", "city": "Decorah", "state": "IA", "addr": "Short St", "lat": 43.29229, "lng": -91.79694}, {"slug": "des-moines", "city": "Des Moines", "state": "IA", "addr": "SE 14th St", "lat": 41.53177, "lng": -93.59601}, {"slug": "dubuque", "city": "Dubuque", "state": "IA", "addr": "Asbury Rd", "lat": 42.51588, "lng": -90.74187}, {"slug": "fort-dodge", "city": "Fort Dodge", "state": "IA", "addr": "5th Ave S", "lat": 42.50177, "lng": -94.15353}, {"slug": "grimes-ia-1st-st", "city": "Grimes", "state": "IA", "addr": "1st St", "lat": 41.68916, "lng": -93.77726}, {"slug": "hiawatha", "city": "Hiawatha", "state": "IA", "addr": "N Center Point Rd", "lat": 42.04828, "lng": -91.68318}, {"slug": "iowa-city-ia", "city": "Iowa City", "state": "IA", "addr": "Hwy 1 W", "lat": 41.64811, "lng": -91.54938}, {"slug": "leclaire-ia-mississippi-view-ct", "city": "LeClaire", "state": "IA", "addr": "Mississippi View Ct - Coming Soon!", "lat": 41.5875, "lng": -90.3617}, {"slug": "marion", "city": "Marion", "state": "IA", "addr": "Red Fox Way", "lat": 42.03856, "lng": -91.55118}, {"slug": "marshalltown", "city": "Marshalltown", "state": "IA", "addr": "Iowa Ave W", "lat": 42.00622, "lng": -92.9146}, {"slug": "murray", "city": "Muscatine", "state": "IA", "addr": "University Dr", "lat": 41.45988, "lng": -91.01881}, {"slug": "muscatine", "city": "Muscatine", "state": "IA", "addr": "University Dr", "lat": 41.45988, "lng": -91.01881}, {"slug": "newton", "city": "Newton", "state": "IA", "addr": "W 19th St S", "lat": 41.68488, "lng": -93.07867}, {"slug": "north-liberty-ia-lininger-ln", "city": "North Liberty", "state": "IA", "addr": "W Penn St", "lat": 41.7529, "lng": -91.6356}, {"slug": "norwalk-ia-hughes-dr", "city": "Norwalk", "state": "IA", "addr": "Sunset Dr", "lat": 41.48441, "lng": -93.67349}, {"slug": "ottumwa-ia-venture", "city": "Ottumwa", "state": "IA", "addr": "Venture Dr", "lat": 41.01627, "lng": -92.45264}, {"slug": "pella-ia", "city": "Pella", "state": "IA", "addr": "Washington St", "lat": 41.41046, "lng": -92.93182}, {"slug": "sioux-center", "city": "Sioux Center", "state": "IA", "addr": "S Main Ave", "lat": 43.05702, "lng": -96.1776}, {"slug": "sioux-city", "city": "Sioux Center", "state": "IA", "addr": "S Main Ave", "lat": 43.05702, "lng": -96.1776}, {"slug": "sioux-city-ia-hamilton", "city": "Sioux City", "state": "IA", "addr": "Hamilton Blvd", "lat": 42.51597, "lng": -96.41629}, {"slug": "urbandale", "city": "Urbandale", "state": "IA", "addr": "Plum Dr", "lat": 41.64818, "lng": -93.73852}, {"slug": "waterloo", "city": "Waterloo", "state": "IA", "addr": "E Tower Park Dr", "lat": 42.45668, "lng": -92.35265}, {"slug": "waukee-ia-hickman-rd", "city": "Waukee", "state": "IA", "addr": "E Hickman Rd", "lat": 41.61559, "lng": -93.86307}, {"slug": "rockford-wansford", "city": "West Des Moines", "state": "IA", "addr": "22nd St", "lat": 41.59937, "lng": -93.73693}, {"slug": "west-des-moines-22nd", "city": "West Des Moines", "state": "IA", "addr": "22nd St", "lat": 41.59937, "lng": -93.73693}, {"slug": "west-des-moines-jordan", "city": "West Des Moines", "state": "IA", "addr": "Jordan Creek Pkwy", "lat": 41.58604, "lng": -93.80807}, {"slug": "idaho-falls-id-pancheri-dr", "city": "Idaho Falls", "state": "ID", "addr": "Pancheri Dr", "lat": 43.48877, "lng": -112.05157}, {"slug": "meridian-id-ustick-rd", "city": "Meridian", "state": "ID", "addr": "E Ustick Rd", "lat": 43.63351, "lng": -116.35098}, {"slug": "twin-falls-id", "city": "Twin Falls", "state": "ID", "addr": "Pole Line Rd", "lat": 42.59225, "lng": -114.47786}, {"slug": "aurora", "city": "Aurora", "state": "IL", "addr": "State Rd 59", "lat": 41.74835, "lng": -88.20668}, {"slug": "bartlett-il-route-59", "city": "Bartlett", "state": "IL", "addr": "Route 59", "lat": 41.95345, "lng": -88.20604}, {"slug": "batavia-il-randall-rd", "city": "Batavia", "state": "IL", "addr": "Randall Rd", "lat": 41.85801, "lng": -88.33987}, {"slug": "belvidere", "city": "Belvidere", "state": "IL", "addr": "Big Thunder Blvd", "lat": 42.27241, "lng": -88.85802}, {"slug": "bloomingdale-il-schick-rd", "city": "Bloomingdale", "state": "IL", "addr": "Schick Rd", "lat": 41.95352, "lng": -88.12262}, {"slug": "bloomington-hershey", "city": "Bloomington", "state": "IL", "addr": "Hershey Rd", "lat": 40.48651, "lng": -88.94266}, {"slug": "bloomington-market", "city": "Bloomington", "state": "IL", "addr": "W Market St", "lat": 40.48446, "lng": -89.02113}, {"slug": "boiling-springs-sc-boiling-springs-rd", "city": "Bolingbrook", "state": "IL", "addr": "N Bolingbrook Dr", "lat": 41.70301, "lng": -88.06783}, {"slug": "bolingbrook", "city": "Bolingbrook", "state": "IL", "addr": "N Bolingbrook Dr", "lat": 41.70301, "lng": -88.06783}, {"slug": "bourbonnais", "city": "Bourbonnais", "state": "IL", "addr": "Convent St", "lat": 41.16966, "lng": -87.87608}, {"slug": "bradley-il-route-50", "city": "Bradley", "state": "IL", "addr": "N State Route 50", "lat": 41.18964, "lng": -87.85122}, {"slug": "bridgeview", "city": "Bridgeview", "state": "IL", "addr": "S Harlem Ave", "lat": 41.72408, "lng": -87.79814}, {"slug": "buffalo-grove", "city": "Buffalo Grove", "state": "IL", "addr": "McHenry Rd", "lat": 42.16121, "lng": -87.96219}, {"slug": "carbondale-il-reed-station-rd", "city": "Carbondale", "state": "IL", "addr": "Reed Station Rd", "lat": 37.74401, "lng": -89.16029}, {"slug": "carol-stream", "city": "Carol Stream", "state": "IL", "addr": "Schmale Rd", "lat": 41.89631, "lng": -88.10292}, {"slug": "carpentersville", "city": "Carpentersville", "state": "IL", "addr": "Miller Rd", "lat": 42.1219, "lng": -88.33706}, {"slug": "champaign-marketview", "city": "Champaign", "state": "IL", "addr": "W Marketview Dr", "lat": 40.1378, "lng": -88.25967}, {"slug": "chicago-il-3355-s-martin-luther-king-dr", "city": "Chicago", "state": "IL", "addr": "S Martin Luther King Dr", "lat": 41.83331, "lng": -87.61643}, {"slug": "chicago-il-cicero-ave", "city": "Chicago", "state": "IL", "addr": "Cicero Ave", "lat": 41.7737, "lng": -87.74183}, {"slug": "chicago-il-montrose-ave", "city": "Chicago", "state": "IL", "addr": "Montrose Ave", "lat": 41.9614, "lng": -87.6754}, {"slug": "chicago-jpstc-w-chicago-ave", "city": "Chicago", "state": "IL", "addr": "W Chicago Ave JPSTC", "lat": 41.895, "lng": -87.73511}, {"slug": "chicago-w-peterson-ave", "city": "Chicago", "state": "IL", "addr": "W Peterson Ave", "lat": 41.9908, "lng": -87.7071}, {"slug": "collinsville", "city": "Collinsville", "state": "IL", "addr": "United Dr", "lat": 38.68887, "lng": -90.00968}, {"slug": "crete", "city": "Crete", "state": "IL", "addr": "Volbrecht Rd", "lat": 41.46872, "lng": -87.5759}, {"slug": "crystal-lake", "city": "Crystal Lake", "state": "IL", "addr": "Pingree Rd", "lat": 42.22946, "lng": -88.29697}, {"slug": "danville-il", "city": "Danville", "state": "IL", "addr": "N Vermilion St", "lat": 40.17576, "lng": -87.63055}, {"slug": "darien", "city": "Darien", "state": "IL", "addr": "Plainfield Rd", "lat": 41.75442, "lng": -87.9596}, {"slug": "dekalb-il", "city": "DeKalb", "state": "IL", "addr": "W Lincoln Hwy", "lat": 41.93039, "lng": -88.7774}, {"slug": "logansport-in-market-st", "city": "DeKalb", "state": "IL", "addr": "W Lincoln Hwy", "lat": 41.93039, "lng": -88.7774}, {"slug": "lombard", "city": "DeKalb", "state": "IL", "addr": "W Lincoln Hwy", "lat": 41.93039, "lng": -88.7774}, {"slug": "decatur-aldi", "city": "Decatur", "state": "IL", "addr": "E Aldi Dr", "lat": 39.81775, "lng": -88.88021}, {"slug": "decatur-water-street", "city": "Decatur", "state": "IL", "addr": "N Water St", "lat": 39.87629, "lng": -88.95445}, {"slug": "diamond-il-e-division-st", "city": "Diamond", "state": "IL", "addr": "E Division St", "lat": 41.28807, "lng": -88.24626}, {"slug": "dixon", "city": "Dixon", "state": "IL", "addr": "N Galena Ave", "lat": 41.86112, "lng": -89.49873}, {"slug": "chicago-il-doty-ave", "city": "Downers Grove", "state": "IL", "addr": "Ogden Ave", "lat": 41.8056, "lng": -88.04639}, {"slug": "downers-grove", "city": "Downers Grove", "state": "IL", "addr": "Ogden Ave", "lat": 41.8056, "lng": -88.04639}, {"slug": "east-peoria", "city": "East Peoria", "state": "IL", "addr": "Camp St", "lat": 40.68055, "lng": -89.58817}, {"slug": "edwardsville", "city": "Edwardsville", "state": "IL", "addr": "Old Troy Rd", "lat": 38.78081, "lng": -89.94801}, {"slug": "elmhurst-il-n-york-st", "city": "Elmhurst", "state": "IL", "addr": "N York St", "lat": 41.91133, "lng": -87.94025}, {"slug": "elmwood-park-il-w-grand-ave", "city": "Elmwood Park", "state": "IL", "addr": "W Grand Ave", "lat": 41.92584, "lng": -87.8157}, {"slug": "evergreen-park-il", "city": "Evergreen Park", "state": "IL", "addr": "S Kedzie Ave", "lat": 41.71988, "lng": -87.7014}, {"slug": "fox-lake-il-hwy-12", "city": "Fox River Grove", "state": "IL", "addr": "Northwest Hwy", "lat": 42.19648, "lng": -88.21539}, {"slug": "fox-river-grove-il-northwest-hwy", "city": "Frankfort", "state": "IL", "addr": "S La Grange Rd", "lat": 41.51717, "lng": -87.85055}, {"slug": "frankfort", "city": "Frankfort", "state": "IL", "addr": "S La Grange Rd", "lat": 41.51717, "lng": -87.85055}, {"slug": "franklin-park", "city": "Franklin Park", "state": "IL", "addr": "Rose St", "lat": 41.9287, "lng": -87.86443}, {"slug": "freeport", "city": "Freeport", "state": "IL", "addr": "Dirck Dr", "lat": 42.28067, "lng": -89.63441}, {"slug": "cape-coral-fl-pine-island-rd", "city": "Galena", "state": "IL", "addr": "Oldenburg Ln", "lat": 42.43622, "lng": -90.45033}, {"slug": "galena", "city": "Galena", "state": "IL", "addr": "Oldenburg Ln", "lat": 42.43622, "lng": -90.45033}, {"slug": "galesburg-il-n-henderson-st", "city": "Galesburg", "state": "IL", "addr": "N Henderson St", "lat": 40.9639, "lng": -90.3838}, {"slug": "geneseo", "city": "Geneseo", "state": "IL", "addr": "S Oakwood Ave", "lat": 41.43493, "lng": -90.15857}, {"slug": "zionsville-in-us-hwy-421", "city": "Geneseo", "state": "IL", "addr": "S Oakwood Ave", "lat": 41.43493, "lng": -90.15857}, {"slug": "glenview-il-waukegan-rd", "city": "Glenview", "state": "IL", "addr": "Waukegan Rd", "lat": 42.08666, "lng": -87.7977}, {"slug": "yankton-sd", "city": "Glenview", "state": "IL", "addr": "Waukegan Rd", "lat": 42.08666, "lng": -87.7977}, {"slug": "grayslake", "city": "Grayslake", "state": "IL", "addr": "N IL Rte 83", "lat": 42.36603, "lng": -88.04179}, {"slug": "gurnee", "city": "Gurnee", "state": "IL", "addr": "Nations Dr", "lat": 42.3811, "lng": -87.94093}, {"slug": "sandusky-oh-milan-rd", "city": "Gurnee", "state": "IL", "addr": "Nations Dr", "lat": 42.3811, "lng": -87.94093}, {"slug": "farmington", "city": "Harvard", "state": "IL", "addr": "S Division St", "lat": 42.40497, "lng": -88.61277}, {"slug": "harvard-il-division-st", "city": "Harvard", "state": "IL", "addr": "S Division St", "lat": 42.40497, "lng": -88.61277}, {"slug": "hoffman-estates-il-hoffman-blvd", "city": "Hoffman Estates", "state": "IL", "addr": "Hoffman Blvd", "lat": 42.06903, "lng": -88.19402}, {"slug": "homer-glen-il-143rd", "city": "Homer Glen", "state": "IL", "addr": "143rd St", "lat": 41.6295, "lng": -87.9294}, {"slug": "holland-oh-center-rd", "city": "Homewood", "state": "IL", "addr": "W 183rd St", "lat": 41.55801, "lng": -87.63818}, {"slug": "homewood", "city": "Homewood", "state": "IL", "addr": "W 183rd St", "lat": 41.55801, "lng": -87.63818}, {"slug": "huntley", "city": "Huntley", "state": "IL", "addr": "S IL Rte 47", "lat": 42.14449, "lng": -88.43214}, {"slug": "island-lake", "city": "Island Lake", "state": "IL", "addr": "E State Rd", "lat": 42.27145, "lng": -88.19638}, {"slug": "joliet", "city": "Joliet", "state": "IL", "addr": "IL Rte 59", "lat": 41.54879, "lng": -88.19895}, {"slug": "joliet-il-larkin-ave", "city": "Joliet", "state": "IL", "addr": "S Larkin Ave", "lat": 41.5179, "lng": -88.12517}, {"slug": "lake-in-the-hills", "city": "Lake in the Hills", "state": "IL", "addr": "Randall Rd", "lat": 42.17864, "lng": -88.33479}, {"slug": "cedar-city-ut-s-main-st", "city": "Lansing", "state": "IL", "addr": "Torrence Ave", "lat": 41.58617, "lng": -87.55997}, {"slug": "lansing-il", "city": "Lansing", "state": "IL", "addr": "Torrence Ave", "lat": 41.58617, "lng": -87.55997}, {"slug": "libertyville", "city": "Libertyville", "state": "IL", "addr": "E Park Ave", "lat": 42.28144, "lng": -87.93952}, {"slug": "lincoln-il", "city": "Lincoln", "state": "IL", "addr": "Woodlawn Rd", "lat": 40.15852, "lng": -89.40257}, {"slug": "lincolnshire-il-milwaukee-ave", "city": "Lincolnshire", "state": "IL", "addr": "Milwaukee Ave", "lat": 42.20002, "lng": -87.93222}, {"slug": "lockport-il", "city": "Lockport", "state": "IL", "addr": "S Farrell Rd", "lat": 41.59661, "lng": -88.02711}, {"slug": "lyons", "city": "Lyons", "state": "IL", "addr": "Ogden Ave", "lat": 41.81589, "lng": -87.82643}, {"slug": "mahomet-il-patton-dr", "city": "Mahomet", "state": "IL", "addr": "Patton Dr", "lat": 40.18421, "lng": -88.36649}, {"slug": "marion-il-blue-heron-dr", "city": "Marion", "state": "IL", "addr": "Blue Heron Dr", "lat": 37.74511, "lng": -88.96113}, {"slug": "matteson", "city": "Matteson", "state": "IL", "addr": "Cicero Ave", "lat": 41.51238, "lng": -87.73319}, {"slug": "mchenry", "city": "McHenry", "state": "IL", "addr": "Adams Dr", "lat": 42.34303, "lng": -88.2497}, {"slug": "minooka", "city": "Minooka", "state": "IL", "addr": "Ridge Rd", "lat": 41.42172, "lng": -88.27077}, {"slug": "monee-il", "city": "Monee", "state": "IL", "addr": "W Monee Manhattan Rd", "lat": 41.42644, "lng": -87.75359}, {"slug": "morris", "city": "Morris", "state": "IL", "addr": "N Division St", "lat": 41.38227, "lng": -88.42138}, {"slug": "morton", "city": "Morton", "state": "IL", "addr": "E Courtland St", "lat": 40.62905, "lng": -89.46377}, {"slug": "morton-grove", "city": "Morton Grove", "state": "IL", "addr": "W Dempster St", "lat": 42.04113, "lng": -87.80979}, {"slug": "mt-vernon-il-veterans-memorial", "city": "Mount Vernon", "state": "IL", "addr": "Veterans Memorial Dr", "lat": 38.30185, "lng": -88.94269}, {"slug": "sturgeon-bay", "city": "Mount Vernon", "state": "IL", "addr": "Veterans Memorial Dr", "lat": 38.30185, "lng": -88.94269}, {"slug": "mt-prospect", "city": "Mt. Prospect", "state": "IL", "addr": "Dempster St", "lat": 42.03649, "lng": -87.95866}, {"slug": "mundelein", "city": "Mundelein", "state": "IL", "addr": "Oak Creek Plz", "lat": 42.24018, "lng": -87.98774}, {"slug": "n-charleston-tanger-outlet", "city": "Naperville", "state": "IL", "addr": "Naper Blvd", "lat": 41.79739, "lng": -88.12032}, {"slug": "naperville-il-naper-blvd", "city": "Naperville", "state": "IL", "addr": "Naper Blvd", "lat": 41.79739, "lng": -88.12032}, {"slug": "new-lenox", "city": "New Lenox", "state": "IL", "addr": "E Lincoln Hwy", "lat": 41.51274, "lng": -87.95587}, {"slug": "northbrook-il-dundee-rd", "city": "Northbrook", "state": "IL", "addr": "Dundee Rd", "lat": 42.1381, "lng": -87.8819}, {"slug": "oak-forest-il-159st", "city": "Oak Lawn", "state": "IL", "addr": "S Cicero Ave", "lat": 41.69671, "lng": -87.73938}, {"slug": "orland-park", "city": "Orland Park", "state": "IL", "addr": "159th St", "lat": 41.60188, "lng": -87.842}, {"slug": "oswego", "city": "Oswego", "state": "IL", "addr": "US Hwy 34", "lat": 41.70086, "lng": -88.31514}, {"slug": "ottawa", "city": "Ottawa", "state": "IL", "addr": "Fairfield Ln", "lat": 41.37358, "lng": -88.83527}, {"slug": "palatine", "city": "Palatine", "state": "IL", "addr": "N Rand Rd", "lat": 42.14272, "lng": -88.02452}, {"slug": "tinley-park", "city": "Palatine", "state": "IL", "addr": "N Rand Rd", "lat": 42.14272, "lng": -88.02452}, {"slug": "pekin", "city": "Pekin", "state": "IL", "addr": "Court St", "lat": 40.54274, "lng": -89.59852}, {"slug": "peoria-holiday", "city": "Peoria", "state": "IL", "addr": "W Holiday Dr", "lat": 40.77509, "lng": -89.67245}, {"slug": "peoria-il-n-centerway-dr", "city": "Peoria", "state": "IL", "addr": "N Centerway Dr", "lat": 40.81653, "lng": -89.61389}, {"slug": "peoria-university", "city": "Peoria", "state": "IL", "addr": "N University St", "lat": 40.74398, "lng": -89.61191}, {"slug": "peru", "city": "Peru", "state": "IL", "addr": "Midtown Rd", "lat": 41.34722, "lng": -89.12422}, {"slug": "plainfield-il", "city": "Plainfield", "state": "IL", "addr": "IL Rte 59", "lat": 41.63768, "lng": -88.20226}, {"slug": "plano-il-lakeside-rd", "city": "Plano", "state": "IL", "addr": "Lakeside Rd", "lat": 41.65535, "lng": -88.56105}, {"slug": "princeton", "city": "Princeton", "state": "IL", "addr": "Ace Rd", "lat": 41.39489, "lng": -89.46427}, {"slug": "quincy-il", "city": "Quincy", "state": "IL", "addr": "Broadway St", "lat": 39.93505, "lng": -91.37594}, {"slug": "rantoul-il-champaign-ave", "city": "Rantoul", "state": "IL", "addr": "Champaign Ave", "lat": 40.30863, "lng": -88.172}, {"slug": "rochelle", "city": "Rochelle", "state": "IL", "addr": "S Dement Rd", "lat": 41.93173, "lng": -89.03493}, {"slug": "rock-falls", "city": "Rock Falls", "state": "IL", "addr": "Harley Davidson Dr", "lat": 41.76297, "lng": -89.68898}, {"slug": "coon-rapids", "city": "Rockford", "state": "IL", "addr": "E State St", "lat": 42.2674, "lng": -89.00549}, {"slug": "rockford-phelps", "city": "Rockford", "state": "IL", "addr": "E State St", "lat": 42.2674, "lng": -89.00549}, {"slug": "romeoville", "city": "Romeoville", "state": "IL", "addr": "N Weber Rd", "lat": 41.64249, "lng": -88.12267}, {"slug": "roscoe", "city": "Roscoe", "state": "IL", "addr": "N 2nd St", "lat": 42.40195, "lng": -89.01033}, {"slug": "rosemont", "city": "Rosemont", "state": "IL", "addr": "Mannheim Rd", "lat": 42.0079, "lng": -87.88573}, {"slug": "plymouth-quinwood", "city": "Schaumburg", "state": "IL", "addr": "Wise Rd", "lat": 42.00415, "lng": -88.12441}, {"slug": "schaumburg-wise", "city": "Schaumburg", "state": "IL", "addr": "Wise Rd", "lat": 42.00415, "lng": -88.12441}, {"slug": "silvis-il-22nd-ave", "city": "Silvis", "state": "IL", "addr": "22nd Ave", "lat": 41.48798, "lng": -90.42017}, {"slug": "skokie-il-skokie-blvd", "city": "Skokie", "state": "IL", "addr": "N Skokie Blvd", "lat": 42.05281, "lng": -87.7439}, {"slug": "south-elgin", "city": "South Elgin", "state": "IL", "addr": "Randall Rd", "lat": 41.98923, "lng": -88.34283}, {"slug": "springfield-dirksen-pkwy", "city": "Springfield", "state": "IL", "addr": "N Dirksen Pkwy", "lat": 39.83811, "lng": -89.60373}, {"slug": "springfield-wabash", "city": "Springfield", "state": "IL", "addr": "Wabash Ave", "lat": 39.7558, "lng": -89.73254}, {"slug": "st-charles-il", "city": "St. Charles", "state": "IL", "addr": "E Main St", "lat": 41.92201, "lng": -88.25533}, {"slug": "st-charles-il-randall-rd", "city": "St. Charles", "state": "IL", "addr": "S Randall Rd", "lat": 41.91075, "lng": -88.3408}, {"slug": "sugar-grove-il-sugar-grove-pkwy", "city": "Sugar Grove", "state": "IL", "addr": "N Sugar Grove Pkwy", "lat": 41.77291, "lng": -88.44353}, {"slug": "sycamore", "city": "Sycamore", "state": "IL", "addr": "DeKalb Ave", "lat": 41.98146, "lng": -88.70432}, {"slug": "tilton-il-georgetown-rd", "city": "Tilton", "state": "IL", "addr": "Georgetown Rd", "lat": 40.1006, "lng": -87.63628}, {"slug": "urbana-il-w-university-ave", "city": "Urbana", "state": "IL", "addr": "W University Ave", "lat": 40.11613, "lng": -88.20952}, {"slug": "warrenville-illinois-rte-59", "city": "Warrenville", "state": "IL", "addr": "Illinois Rte 59", "lat": 41.8174, "lng": -88.204}, {"slug": "warsaw", "city": "Washington", "state": "IL", "addr": "N Cummings Ln", "lat": 40.70632, "lng": -89.44502}, {"slug": "washington-il-n-cummings-ln", "city": "Washington", "state": "IL", "addr": "N Cummings Ln", "lat": 40.70632, "lng": -89.44502}, {"slug": "big-rapids-mi-waldron-way", "city": "Waukegan", "state": "IL", "addr": "S Waukegan Rd", "lat": 42.34418, "lng": -87.89585}, {"slug": "waukegan-il-s-waukegan-rd", "city": "Waukegan", "state": "IL", "addr": "S Waukegan Rd", "lat": 42.34418, "lng": -87.89585}, {"slug": "willmar", "city": "Winnebago", "state": "IL", "addr": "Cannell Puri Dr", "lat": 42.279, "lng": -89.24237}, {"slug": "winnebago", "city": "Winnebago", "state": "IL", "addr": "Cannell Puri Dr", "lat": 42.279, "lng": -89.24237}, {"slug": "woodstock", "city": "Woodstock", "state": "IL", "addr": "W Lake Shore Dr", "lat": 42.29073, "lng": -88.41626}, {"slug": "wrigleyville-il-w-addison", "city": "Wrigleyville", "state": "IL", "addr": "W Addison St", "lat": 41.94689, "lng": -87.65752}, {"slug": "yorkville", "city": "Yorkville", "state": "IL", "addr": "Marketview Dr", "lat": 41.66328, "lng": -88.44149}, {"slug": "zion", "city": "Zion", "state": "IL", "addr": "Sheridan Rd", "lat": 42.43376, "lng": -87.8251}, {"slug": "ames", "city": "Anderson", "state": "IN", "addr": "S Scatterfield Rd", "lat": 40.05087, "lng": -85.65231}, {"slug": "anderson", "city": "Anderson", "state": "IN", "addr": "S Scatterfield Rd", "lat": 40.05087, "lng": -85.65231}, {"slug": "angola-in-wayne", "city": "Angola", "state": "IN", "addr": "Wayne St", "lat": 41.66195, "lng": -85.00015}, {"slug": "auburn-in-w-7th-st", "city": "Auburn", "state": "IN", "addr": "W 7th St", "lat": 41.36611, "lng": -85.07984}, {"slug": "avon-in-east-us-hwy-36", "city": "Avon", "state": "IN", "addr": "East US Hwy 36", "lat": 39.76238, "lng": -86.38757}, {"slug": "bedford-in-john-williams-blvd", "city": "Bedford", "state": "IN", "addr": "John A Williams Blvd", "lat": 38.86777, "lng": -86.51226}, {"slug": "indianapolis-in-emerson-ave", "city": "Beech Grove", "state": "IN", "addr": "Emerson Ave", "lat": 39.69791, "lng": -86.08171}, {"slug": "bloomington-in-w-3rd-st", "city": "Bloomington", "state": "IN", "addr": "W 3rd St", "lat": 39.16499, "lng": -86.55983}, {"slug": "west-st-paul", "city": "Bridgewater", "state": "IN", "addr": "Gray Rd", "lat": 40.00159, "lng": -86.09049}, {"slug": "westfield-in-gray-rd", "city": "Bridgewater", "state": "IN", "addr": "Gray Rd", "lat": 40.00159, "lng": -86.09049}, {"slug": "brownsburg-in-green-st", "city": "Brownsburg", "state": "IN", "addr": "N Green St", "lat": 39.86021, "lng": -86.39148}, {"slug": "cedar-lake-in-w-133rd-ave", "city": "Cedar Lake", "state": "IN", "addr": "W 133rd Ave", "lat": 41.37684, "lng": -87.45362}, {"slug": "chesterton-in", "city": "Chesterton", "state": "IN", "addr": "Matson St", "lat": 41.57707, "lng": -87.04475}, {"slug": "columbia-city-in-connexion-way", "city": "Columbia City", "state": "IN", "addr": "Connexion Way", "lat": 41.17026, "lng": -85.51025}, {"slug": "corydon", "city": "Corydon", "state": "IN", "addr": "Federal Dr", "lat": 38.23349, "lng": -86.13259}, {"slug": "crown-point-in", "city": "Crown Point", "state": "IN", "addr": "E Summit St", "lat": 41.42797, "lng": -87.33731}, {"slug": "cumberland-in-e-washington-st", "city": "Cumberland", "state": "IN", "addr": "E Washington St", "lat": 39.77562, "lng": -85.96436}, {"slug": "cumming-ga-bethelview-rd", "city": "Danville", "state": "IN", "addr": "CR 200 E", "lat": 39.76059, "lng": -86.48693}, {"slug": "danville-in-cr-200-e", "city": "Danville", "state": "IN", "addr": "CR 200 E", "lat": 39.76059, "lng": -86.48693}, {"slug": "elkhart", "city": "Elkhart", "state": "IN", "addr": "Brittany Ct", "lat": 41.7275, "lng": -85.9726}, {"slug": "evansville", "city": "Evansville", "state": "IN", "addr": "Hirschland Rd", "lat": 37.99273, "lng": -87.47326}, {"slug": "evansville-in-w-lloyd-expy", "city": "Evansville", "state": "IN", "addr": "W Lloyd Expy", "lat": 37.97624, "lng": -87.63425}, {"slug": "tomah", "city": "Evansville", "state": "IN", "addr": "W Lloyd Expy", "lat": 37.97624, "lng": -87.63425}, {"slug": "fishers-in", "city": "Fishers", "state": "IN", "addr": "Olio Rd", "lat": 39.9875, "lng": -85.91842}, {"slug": "fort-wayne-in-southtown-crossing", "city": "Fort Wayne", "state": "IN", "addr": "Southtown Crossing - Coming Soon!", "lat": 41.01641, "lng": -85.1189}, {"slug": "fort-wayne-in-washington-center", "city": "Fort Wayne", "state": "IN", "addr": "W Washington Center Rd", "lat": 41.13198, "lng": -85.15825}, {"slug": "ft-wayne-in-stellhorn", "city": "Fort Wayne", "state": "IN", "addr": "Stellhorn Rd", "lat": 41.11997, "lng": -85.06436}, {"slug": "franklin-in-granville-dr", "city": "Franklin", "state": "IN", "addr": "Granville Dr", "lat": 39.4837, "lng": -86.016}, {"slug": "goshen-in", "city": "Goshen", "state": "IN", "addr": "Lincoln Way E", "lat": 41.55993, "lng": -85.79581}, {"slug": "goshen-in-elkhart-rd", "city": "Goshen", "state": "IN", "addr": "Elkhart Rd", "lat": 41.59875, "lng": -85.86349}, {"slug": "granger-in-state-rd", "city": "Granger", "state": "IN", "addr": "S State Rd", "lat": 41.7524, "lng": -86.1229}, {"slug": "greensburg-in-n-broadway-st", "city": "Greensburg", "state": "IN", "addr": "N Broadway St", "lat": 39.35424, "lng": -85.48566}, {"slug": "greenville-mi-washington", "city": "Greensburg", "state": "IN", "addr": "N Broadway St", "lat": 39.35424, "lng": -85.48566}, {"slug": "greenwood", "city": "Greenwood", "state": "IN", "addr": "State Rd 135", "lat": 39.61, "lng": -86.15927}, {"slug": "greenwood-in-emerson-ave", "city": "Greenwood", "state": "IN", "addr": "Emerson Ave", "lat": 39.63323, "lng": -86.08339}, {"slug": "hammond-in", "city": "Hammond", "state": "IN", "addr": "Cabela Drive", "lat": 41.56998, "lng": -87.4788}, {"slug": "highland-in", "city": "Highland", "state": "IN", "addr": "Ridge Rd", "lat": 41.55109, "lng": -87.43307}, {"slug": "huntington-in-guilford-st", "city": "Huntington", "state": "IN", "addr": "Guilford St", "lat": 40.90062, "lng": -85.50529}, {"slug": "indianapolis-71st", "city": "Indianapolis", "state": "IN", "addr": "W 71st St", "lat": 39.88253, "lng": -86.2454}, {"slug": "indianapolis-96th", "city": "Indianapolis", "state": "IN", "addr": "E 96th St", "lat": 39.92653, "lng": -86.04331}, {"slug": "indianapolis-in-21-st", "city": "Indianapolis", "state": "IN", "addr": "E 21st Street", "lat": 39.79678, "lng": -86.04484}, {"slug": "indianapolis-in-keystone-ave", "city": "Indianapolis", "state": "IN", "addr": "S East St", "lat": 39.7113, "lng": -86.14839}, {"slug": "indianapolis-in-rockville-rd", "city": "Indianapolis", "state": "IN", "addr": "Rockville Rd", "lat": 39.76348, "lng": -86.30613}, {"slug": "indianapolis-kentucky", "city": "Indianapolis", "state": "IN", "addr": "Kentucky Ave", "lat": 39.69982, "lng": -86.26294}, {"slug": "jasper-in-newton-st", "city": "Jasper", "state": "IN", "addr": "Newton St", "lat": 38.40487, "lng": -86.93726}, {"slug": "jeffersonville-in", "city": "Jeffersonville", "state": "IN", "addr": "Veterans Pkwy", "lat": 38.32957, "lng": -85.7451}, {"slug": "jeffersonville-in-e-10th-st", "city": "Jeffersonville", "state": "IN", "addr": "E 10th St", "lat": 38.33393, "lng": -85.70985}, {"slug": "kokomo", "city": "Kokomo", "state": "IN", "addr": "Pipeline Way", "lat": 40.43539, "lng": -86.128}, {"slug": "la-porte-in-pine-lake-ave", "city": "La Porte", "state": "IN", "addr": "Pine Lake Ave", "lat": 41.61814, "lng": -86.73398}, {"slug": "lafayette", "city": "Lafayette", "state": "IN", "addr": "N Creasy Ln", "lat": 40.421, "lng": -86.84014}, {"slug": "lawrence-in", "city": "Lawrence", "state": "IN", "addr": "N Post Rd", "lat": 39.85422, "lng": -86.00956}, {"slug": "lebanon-indiana-lebanon-st", "city": "Lebanon", "state": "IN", "addr": "Lebanon St", "lat": 40.07201, "lng": -86.47466}, {"slug": "madison-in-franks-dr", "city": "Madison", "state": "IN", "addr": "Franks Dr", "lat": 38.77685, "lng": -85.37967}, {"slug": "martinsville-in-prather-dr", "city": "Martinsville", "state": "IN", "addr": "Prather Dr", "lat": 39.41352, "lng": -86.42281}, {"slug": "mccordsville-in-broadway", "city": "McCordsville", "state": "IN", "addr": "W Broadway", "lat": 39.8962, "lng": -85.91966}, {"slug": "merrillville", "city": "Merrillville", "state": "IN", "addr": "E 79th Ave", "lat": 41.47345, "lng": -87.31756}, {"slug": "mishawaka", "city": "Mishawaka", "state": "IN", "addr": "N Main St", "lat": 41.71097, "lng": -86.17888}, {"slug": "mishawaka-in-mckinley-hwy", "city": "Mishawaka", "state": "IN", "addr": "McKinley Hwy", "lat": 41.68499, "lng": -86.11092}, {"slug": "mooresville-in-s-indiana-st", "city": "Mooresville", "state": "IN", "addr": "S Indiana St", "lat": 39.60397, "lng": -86.37587}, {"slug": "muncie-in", "city": "Muncie", "state": "IN", "addr": "W McGalliard Rd", "lat": 40.21934, "lng": -85.40137}, {"slug": "new-castle-in-memorial", "city": "New Castle", "state": "IN", "addr": "Memorial Dr", "lat": 39.92594, "lng": -85.38268}, {"slug": "new-haven-in-state-rd-930", "city": "New Haven", "state": "IN", "addr": "State Rd 930", "lat": 41.06862, "lng": -85.05946}, {"slug": "newburgh-in-highpointe-dr", "city": "Newburgh", "state": "IN", "addr": "High Pointe Dr", "lat": 37.97957, "lng": -87.41274}, {"slug": "noblesville", "city": "Noblesville", "state": "IN", "addr": "Westfield Rd", "lat": 40.04646, "lng": -86.02598}, {"slug": "plainfield", "city": "Plainfield", "state": "IN", "addr": "S Perry Rd", "lat": 39.71621, "lng": -86.35754}, {"slug": "plymouth-in-michigan-st", "city": "Plymouth", "state": "IN", "addr": "Michigan St", "lat": 41.35941, "lng": -86.31087}, {"slug": "portage-in", "city": "Portage", "state": "IN", "addr": "US Hwy 6", "lat": 41.54993, "lng": -87.17744}, {"slug": "portage-in-olmstead-dr", "city": "Portage", "state": "IN", "addr": "Olmstead Dr", "lat": 41.60644, "lng": -87.17114}, {"slug": "schaumburg-algonquin", "city": "Schererville", "state": "IN", "addr": "W Lincoln Hwy", "lat": 41.49125, "lng": -87.47505}, {"slug": "schererville", "city": "Schererville", "state": "IN", "addr": "W Lincoln Hwy", "lat": 41.49125, "lng": -87.47505}, {"slug": "seymour-in-sandy-creek", "city": "Seymour", "state": "IN", "addr": "Sandy Creek Dr", "lat": 38.95935, "lng": -85.84795}, {"slug": "shelbyville-in-morristown-rd", "city": "Shelbyville", "state": "IN", "addr": "Morristown Rd", "lat": 39.55407, "lng": -85.77445}, {"slug": "south-bend-in-sr-933", "city": "South Bend", "state": "IN", "addr": "Notre Dame", "lat": 41.7264, "lng": -86.2511}, {"slug": "st-johns-indiana", "city": "St. John", "state": "IN", "addr": "Wicker Ave", "lat": 41.44009, "lng": -87.46937}, {"slug": "terre-haute-in-south-street-rd", "city": "Terre Haute", "state": "IN", "addr": "State Road 46", "lat": 39.4428, "lng": -87.3323}, {"slug": "terre-haute-s-us-hwy", "city": "Terre Haute", "state": "IN", "addr": "South US HWY 41", "lat": 39.41803, "lng": -87.41704}, {"slug": "valparaiso", "city": "Valparaiso", "state": "IN", "addr": "Laporte Ave", "lat": 41.46758, "lng": -87.03555}, {"slug": "valparaiso-in-thornapple-way", "city": "Valparaiso", "state": "IN", "addr": "US Hwy 30", "lat": 41.46047, "lng": -87.08344}, {"slug": "vincennes-in-executive-blvd", "city": "Vincennes", "state": "IN", "addr": "Executive Blvd", "lat": 38.6949, "lng": -87.49743}, {"slug": "wabash", "city": "Wabash", "state": "IN", "addr": "N Cass St", "lat": 40.8155, "lng": -85.83585}, {"slug": "warsaw-in-jalynn-st", "city": "Warsaw", "state": "IN", "addr": "Jalynn St", "lat": 41.26971, "lng": -85.85366}, {"slug": "west-lafayette-in-sachem-ct", "city": "West Lafayette", "state": "IN", "addr": "Sachem Ct", "lat": 40.46191, "lng": -86.93531}, {"slug": "westfield-in-sun-park-dr", "city": "Westfield", "state": "IN", "addr": "SR 32", "lat": 40.0433, "lng": -86.13958}, {"slug": "whiteland-in-us-31-s", "city": "Whiteland", "state": "IN", "addr": "US 31 S - Coming Soon!", "lat": 39.54733, "lng": -86.08515}, {"slug": "derby-ks-n-rock-rd", "city": "Derby", "state": "KS", "addr": "N Rock Rd", "lat": 37.57962, "lng": -97.24506}, {"slug": "gardner-ks-gardner-rd", "city": "Gardner", "state": "KS", "addr": "Gardner Rd", "lat": 38.7846, "lng": -94.928}, {"slug": "kansas-city-ks", "city": "Kansas City", "state": "KS", "addr": "Prairie Crossing", "lat": 39.12805, "lng": -94.8206}, {"slug": "lansing-mi-towne-centre-blvd", "city": "Lawrence", "state": "KS", "addr": "W 33rd St", "lat": 38.92398, "lng": -95.26125}, {"slug": "lawrence-ks", "city": "Lawrence", "state": "KS", "addr": "W 33rd St", "lat": 38.92398, "lng": -95.26125}, {"slug": "leavenworth-ks-eisenhower-rd", "city": "Leavenworth", "state": "KS", "addr": "Eisenhower Rd", "lat": 39.26744, "lng": -94.91461}, {"slug": "manhattan-ks-mccall-rd", "city": "Manhattan", "state": "KS", "addr": "McCall Rd", "lat": 39.19011, "lng": -96.54885}, {"slug": "manitowoc", "city": "Manhattan", "state": "KS", "addr": "McCall Rd", "lat": 39.19011, "lng": -96.54885}, {"slug": "mission-ks", "city": "Mission", "state": "KS", "addr": "Metcalf Ave", "lat": 39.02017, "lng": -94.66721}, {"slug": "olathe", "city": "Olathe", "state": "KS", "addr": "W 151st St", "lat": 38.85428, "lng": -94.80334}, {"slug": "olathe-ks-s-mur-len-rd", "city": "Olathe", "state": "KS", "addr": "S Mur-Len Rd", "lat": 38.88225, "lng": -94.77892}, {"slug": "overland-park", "city": "Overland Park", "state": "KS", "addr": "W 135th St", "lat": 38.88448, "lng": -94.68488}, {"slug": "whitestown-in-mills-dr", "city": "Wichita", "state": "KS", "addr": "N Rock Rd", "lat": 37.74939, "lng": -97.24424}, {"slug": "wichita-ks-n-maize-rd", "city": "Wichita", "state": "KS", "addr": "N Maize Rd", "lat": 37.74108, "lng": -97.46173}, {"slug": "wichita-ks-n-rock-rd", "city": "Wichita", "state": "KS", "addr": "N Rock Rd", "lat": 37.74939, "lng": -97.24424}, {"slug": "bowling-green", "city": "Bowling Green", "state": "KY", "addr": "Scottsville Rd", "lat": 36.92838, "lng": -86.41284}, {"slug": "elizabethtown-ky-n-mulberry-st", "city": "Elizabethtown", "state": "KY", "addr": "N Mulberry St", "lat": 37.71435, "lng": -85.83118}, {"slug": "florence", "city": "Florence", "state": "KY", "addr": "Hwy 42", "lat": 38.9734, "lng": -84.66278}, {"slug": "georgetown-ky-cherry-blossom", "city": "Georgetown", "state": "KY", "addr": "Cherry Blossom Way", "lat": 38.22139, "lng": -84.53967}, {"slug": "lexington-meijer-way", "city": "Lexington", "state": "KY", "addr": "W Reynolds Rd", "lat": 37.99436, "lng": -84.53152}, {"slug": "hazel-green-al-us-231", "city": "Louisville", "state": "KY", "addr": "S Hurstbourne Pkwy", "lat": 38.18379, "lng": -85.60757}, {"slug": "louisville-interchange", "city": "Louisville", "state": "KY", "addr": "Interchange Dr", "lat": 38.09576, "lng": -85.6721}, {"slug": "nicholasville-ky", "city": "Nicholasville", "state": "KY", "addr": "N Main St", "lat": 37.89647, "lng": -84.56694}, {"slug": "paducah-ky-old-hwy-60", "city": "Paducah", "state": "KY", "addr": "Old Hwy 60 W", "lat": 37.07105, "lng": -88.70381}, {"slug": "rhinelander", "city": "Richmond", "state": "KY", "addr": "Lantern Ridge Dr", "lat": 37.73695, "lng": -84.3307}, {"slug": "richmond", "city": "Richmond", "state": "KY", "addr": "Lantern Ridge Dr", "lat": 37.73695, "lng": -84.3307}, {"slug": "simpsonville-ky", "city": "Simpsonville", "state": "KY", "addr": "Buck Creek Rd", "lat": 38.20454, "lng": -85.34905}, {"slug": "somerset", "city": "Somerset", "state": "KY", "addr": "S Hwy 27", "lat": 37.08412, "lng": -84.61768}, {"slug": "adrian", "city": "Adrian", "state": "MI", "addr": "S Main St", "lat": 41.87901, "lng": -84.04375}, {"slug": "alcoa-tn-hamilton-crossing-blvd", "city": "Allen Park", "state": "MI", "addr": "Southfield Rd", "lat": 42.25932, "lng": -83.20922}, {"slug": "allen-park-mi-southfield-rd", "city": "Allen Park", "state": "MI", "addr": "Southfield Rd", "lat": 42.25932, "lng": -83.20922}, {"slug": "oak-ridge-tn-oak-ridge-turnpike", "city": "Allen Park", "state": "MI", "addr": "Southfield Rd", "lat": 42.25932, "lng": -83.20922}, {"slug": "allendale-mi-lake-michigan-dr", "city": "Allendale", "state": "MI", "addr": "Lake Michigan Dr", "lat": 42.97183, "lng": -85.91286}, {"slug": "alma-mi-n-alger-rd", "city": "Alma", "state": "MI", "addr": "N Alger Rd", "lat": 43.40114, "lng": -84.66599}, {"slug": "alpena", "city": "Alpena", "state": "MI", "addr": "M 32 W", "lat": 45.06108, "lng": -83.47286}, {"slug": "ann-arbor", "city": "Ann Arbor", "state": "MI", "addr": "Jackson Rd", "lat": 42.29035, "lng": -83.84661}, {"slug": "ann-arbor-mi-lohr-rd", "city": "Ann Arbor", "state": "MI", "addr": "Lohr Rd", "lat": 42.24204, "lng": -83.76456}, {"slug": "battle-creek", "city": "Battle Creek", "state": "MI", "addr": "Beckley Rd", "lat": 42.2606, "lng": -85.19686}, {"slug": "belleville", "city": "Belleville", "state": "MI", "addr": "Belleville Rd", "lat": 42.22201, "lng": -83.48397}, {"slug": "brighton-mi-green-oak-village", "city": "Brighton", "state": "MI", "addr": "Green Oak Village", "lat": 42.50336, "lng": -83.75934}, {"slug": "byron-center-84th-st", "city": "Byron Center", "state": "MI", "addr": "84th Street", "lat": 42.81153, "lng": -85.67654}, {"slug": "cedar-springs-mi-white-creek-ave", "city": "Cedar Springs", "state": "MI", "addr": "White Creek Ave", "lat": 43.21867, "lng": -85.57056}, {"slug": "frankfort-e-wabash-st", "city": "Cedar Springs", "state": "MI", "addr": "White Creek Ave", "lat": 43.21867, "lng": -85.57056}, {"slug": "charlevoix-mi-bridge-st", "city": "Charlevoix", "state": "MI", "addr": "Bridge St", "lat": 45.30596, "lng": -85.25854}, {"slug": "elgin-il-mclean-blvd", "city": "Charlevoix", "state": "MI", "addr": "Bridge St", "lat": 45.30596, "lng": -85.25854}, {"slug": "chandler", "city": "Charlotte", "state": "MI", "addr": "Lansing St", "lat": 42.5709, "lng": -84.8242}, {"slug": "charlotte-lansing-st-michigan", "city": "Charlotte", "state": "MI", "addr": "Lansing St", "lat": 42.5709, "lng": -84.8242}, {"slug": "chelsea-mi", "city": "Chelsea", "state": "MI", "addr": "S Main St", "lat": 42.2984, "lng": -84.0256}, {"slug": "chesterfield-mi-marketplace-blvd", "city": "Chesterfield", "state": "MI", "addr": "Marketplace Blvd", "lat": 42.63193, "lng": -82.85349}, {"slug": "clare-mi-clare-ave", "city": "Clarkston", "state": "MI", "addr": "Sashabaw Rd", "lat": 42.73978, "lng": -83.37894}, {"slug": "clarkston", "city": "Clarkston", "state": "MI", "addr": "Sashabaw Rd", "lat": 42.73978, "lng": -83.37894}, {"slug": "coldwater-mi", "city": "Coldwater", "state": "MI", "addr": "E Chicago St", "lat": 41.93697, "lng": -84.98215}, {"slug": "commerce-charter-twp-mi", "city": "Commerce Charter Twp", "state": "MI", "addr": "Haggerty Rd", "lat": 42.53353, "lng": -83.43864}, {"slug": "detroit-mi-mack-ave", "city": "Detroit", "state": "MI", "addr": "Mack Ave", "lat": 42.41569, "lng": -82.91161}, {"slug": "dewitt-mi-herbison", "city": "Dewitt", "state": "MI", "addr": "Herbison Rd", "lat": 42.8279, "lng": -84.5445}, {"slug": "duncan-sc", "city": "Dundee", "state": "MI", "addr": "Tecumseh Rd", "lat": 41.96049, "lng": -83.6815}, {"slug": "dundee-mi-tecumseh-rd", "city": "Dundee", "state": "MI", "addr": "Tecumseh Rd", "lat": 41.96049, "lng": -83.6815}, {"slug": "escanaba", "city": "Escanaba", "state": "MI", "addr": "N Lincoln Rd", "lat": 45.75266, "lng": -87.07809}, {"slug": "fenton-mi", "city": "Fenton", "state": "MI", "addr": "Owen Rd", "lat": 42.79035, "lng": -83.7339}, {"slug": "flint-mi-miller-rd", "city": "Flint", "state": "MI", "addr": "Miller Rd", "lat": 42.98349, "lng": -83.75393}, {"slug": "gratiot-mi-24th-ave", "city": "Fort Gratiot", "state": "MI", "addr": "24th Ave", "lat": 43.0336, "lng": -82.4558}, {"slug": "gaylord", "city": "Gaylord", "state": "MI", "addr": "W Main St", "lat": 45.02713, "lng": -84.70152}, {"slug": "grand-blanc-mi", "city": "Grand Blanc", "state": "MI", "addr": "Holly Rd", "lat": 42.89921, "lng": -83.63173}, {"slug": "holland", "city": "Holland", "state": "MI", "addr": "W Shore Dr", "lat": 42.82365, "lng": -86.09213}, {"slug": "holland-mi-e-16th-st", "city": "Holland", "state": "MI", "addr": "E 16th St", "lat": 42.78358, "lng": -86.08202}, {"slug": "houghton-mi", "city": "Houghton", "state": "MI", "addr": "W Sharon Ave", "lat": 47.1129, "lng": -88.58987}, {"slug": "howell-mi-grand-river-ave", "city": "Howell", "state": "MI", "addr": "E Grand River Ave", "lat": 42.58678, "lng": -83.87561}, {"slug": "hudsonville-mi-32nd-ave", "city": "Hudsonville", "state": "MI", "addr": "32nd Ave", "lat": 42.8379, "lng": -85.8624}, {"slug": "ionia-mi-state-rd", "city": "Ionia", "state": "MI", "addr": "State Rd", "lat": 42.9508, "lng": -85.0754}, {"slug": "iron-mountain-mi-stephenson-ave", "city": "Iron Mountain", "state": "MI", "addr": "S Stephenson Ave", "lat": 45.81019, "lng": -88.03547}, {"slug": "jackson-mi", "city": "Jackson", "state": "MI", "addr": "O'Neill Dr", "lat": 42.26627, "lng": -84.45511}, {"slug": "jenison", "city": "Jenison", "state": "MI", "addr": "Cottonwood Dr", "lat": 42.90328, "lng": -85.79338}, {"slug": "kalamazoo", "city": "Kalamazoo", "state": "MI", "addr": "S 9th St", "lat": 42.2433, "lng": -85.67693}, {"slug": "kalamazoo-gull", "city": "Kalamazoo", "state": "MI", "addr": "Gull Rd", "lat": 42.32943, "lng": -85.51064}, {"slug": "lake-orion", "city": "Lake Orion", "state": "MI", "addr": "Interpark Dr N", "lat": 42.70955, "lng": -83.24165}, {"slug": "tucson-az-campbell", "city": "Lake Orion", "state": "MI", "addr": "Interpark Dr N", "lat": 42.70955, "lng": -83.24165}, {"slug": "lansing-mi-pennsylvania-ave", "city": "Lansing", "state": "MI", "addr": "S Pennsylvania Ave", "lat": 42.66663, "lng": -84.53867}, {"slug": "lansing-saginaw", "city": "Lansing", "state": "MI", "addr": "W Saginaw Hwy", "lat": 42.74166, "lng": -84.67769}, {"slug": "lapeer-mi-west-st", "city": "Lapeer", "state": "MI", "addr": "Baldwin Rd", "lat": 43.0401, "lng": -83.3227}, {"slug": "livonia-mi", "city": "Livonia", "state": "MI", "addr": "Middlebelt Rd", "lat": 42.38002, "lng": -83.33111}, {"slug": "lowell-mi-w-main-st", "city": "Lowell", "state": "MI", "addr": "W Main St", "lat": 42.93202, "lng": -85.35318}, {"slug": "ludington-mi-us-10", "city": "Ludington", "state": "MI", "addr": "W US 10", "lat": 43.95526, "lng": -86.40653}, {"slug": "madison-heights", "city": "Madison Heights", "state": "MI", "addr": "W Twelve Mile Rd", "lat": 42.50499, "lng": -83.11331}, {"slug": "manistee-twp-mi-parkdale-ave", "city": "Manistee Twp", "state": "MI", "addr": "Parkdale Ave", "lat": 44.2699, "lng": -86.2924}, {"slug": "marquette", "city": "Marquette", "state": "MI", "addr": "US Hwy 41 W", "lat": 46.54881, "lng": -87.454}, {"slug": "marysville-mi-range-rd", "city": "Marysville", "state": "MI", "addr": "Range Rd - Coming Soon!", "lat": 42.90746, "lng": -82.49913}, {"slug": "midland-mi", "city": "Midland", "state": "MI", "addr": "Eastman Ave", "lat": 43.66361, "lng": -84.24554}, {"slug": "midvale", "city": "Midland", "state": "MI", "addr": "Eastman Ave", "lat": 43.66361, "lng": -84.24554}, {"slug": "monroe-mi-telegraph", "city": "Monroe", "state": "MI", "addr": "Telegraph Rd", "lat": 41.94814, "lng": -83.40157}, {"slug": "mt-pleasant", "city": "Mt. Pleasant", "state": "MI", "addr": "E Pickard St", "lat": 43.61254, "lng": -84.76501}, {"slug": "golden-valley-mn-7th-ave", "city": "Niles", "state": "MI", "addr": "S 11th St", "lat": 41.8115, "lng": -86.2487}, {"slug": "goodyear-az-estrella-pkwy", "city": "Niles", "state": "MI", "addr": "S 11th St", "lat": 41.8115, "lng": -86.2487}, {"slug": "niles-mi-s-11th-st", "city": "Niles", "state": "MI", "addr": "S 11th St", "lat": 41.8115, "lng": -86.2487}, {"slug": "shakopee", "city": "Niles", "state": "MI", "addr": "S 11th St", "lat": 41.8115, "lng": -86.2487}, {"slug": "muskegon-mi-independence-drive", "city": "North Muskegon", "state": "MI", "addr": "Holton Rd", "lat": 43.28362, "lng": -86.22288}, {"slug": "muskegon-mi-n-getty-st", "city": "North Muskegon", "state": "MI", "addr": "Holton Rd", "lat": 43.28362, "lng": -86.22288}, {"slug": "novi-mi-novi-rd", "city": "Novi", "state": "MI", "addr": "Novi Rd", "lat": 42.49144, "lng": -83.47694}, {"slug": "oak-creek", "city": "Novi", "state": "MI", "addr": "Novi Rd", "lat": 42.49144, "lng": -83.47694}, {"slug": "lexington-hamburg-place", "city": "Okemos", "state": "MI", "addr": "Okemos Rd", "lat": 42.68038, "lng": -84.43195}, {"slug": "longmont-co-hover-rd", "city": "Okemos", "state": "MI", "addr": "Okemos Rd", "lat": 42.68038, "lng": -84.43195}, {"slug": "okemos", "city": "Okemos", "state": "MI", "addr": "Times Square Dr", "lat": 42.73054, "lng": -84.41031}, {"slug": "okemos-mi-okemos-rd", "city": "Okemos", "state": "MI", "addr": "Okemos Rd", "lat": 42.68038, "lng": -84.43195}, {"slug": "orion-twp-grand-ave", "city": "Orion Twp", "state": "MI", "addr": "Brown Rd", "lat": 42.7081, "lng": -83.2945}, {"slug": "otsego-mi-allegan", "city": "Otsego", "state": "MI", "addr": "Allegan St", "lat": 42.45047, "lng": -85.67804}, {"slug": "owosso-mi-e-main-st", "city": "Oxford", "state": "MI", "addr": "North Lapeer Rd", "lat": 42.83218, "lng": -83.27113}, {"slug": "oxford-mi-lapeer-rd", "city": "Oxford", "state": "MI", "addr": "North Lapeer Rd", "lat": 42.83218, "lng": -83.27113}, {"slug": "paw-paw-mi-co-rd-665", "city": "Paw Paw", "state": "MI", "addr": "County Rd 665 - Coming Soon!", "lat": 42.204, "lng": -85.8881}, {"slug": "petoskey-mi-31-n", "city": "Petoskey", "state": "MI", "addr": "US 31", "lat": 45.38877, "lng": -84.91405}, {"slug": "portage-mi", "city": "Portage", "state": "MI", "addr": "S Westnedge Ave", "lat": 42.21158, "lng": -85.58996}, {"slug": "10-mile-rd-rockford-mi", "city": "Rockford", "state": "MI", "addr": "10 Mile Road", "lat": 43.11762, "lng": -85.59632}, {"slug": "champaign-neil", "city": "Roseville", "state": "MI", "addr": "Little Mack Ave", "lat": 42.52296, "lng": -82.90831}, {"slug": "roseville", "city": "Roseville", "state": "MI", "addr": "Little Mack Ave", "lat": 42.52296, "lng": -82.90831}, {"slug": "saginaw", "city": "Saginaw", "state": "MI", "addr": "Bay Rd", "lat": 43.48521, "lng": -83.97555}, {"slug": "saginaw-mi-gratiot", "city": "Saginaw", "state": "MI", "addr": "Gratiot Rd", "lat": 43.41642, "lng": -84.07343}, {"slug": "shelby-twp-mi", "city": "Shelby Township", "state": "MI", "addr": "23 Mile Rd", "lat": 42.67188, "lng": -82.97724}, {"slug": "wales", "city": "Shelby Township", "state": "MI", "addr": "23 Mile Rd", "lat": 42.67188, "lng": -82.97724}, {"slug": "south-haven-mi-cr-388", "city": "South Haven", "state": "MI", "addr": "CR 388", "lat": 42.4033, "lng": -86.2473}, {"slug": "south-lyon-mi-pontiac", "city": "Southfield", "state": "MI", "addr": "Southfield Rd", "lat": 42.50994, "lng": -83.22236}, {"slug": "southfield-mi-southfield-rd", "city": "Southfield", "state": "MI", "addr": "Southfield Rd", "lat": 42.50994, "lng": -83.22236}, {"slug": "southfield-mi-telegraph-rd", "city": "Southfield", "state": "MI", "addr": "Telegraph Rd - Coming Soon!", "lat": 42.5061, "lng": -83.28623}, {"slug": "st-petersburg-fl-34th-st", "city": "Sterling Heights", "state": "MI", "addr": "Van Dyke Ave", "lat": 42.562, "lng": -83.02788}, {"slug": "sterling-heights-mi-van-dyke", "city": "Sterling Heights", "state": "MI", "addr": "Van Dyke Ave", "lat": 42.562, "lng": -83.02788}, {"slug": "taylor", "city": "Taylor", "state": "MI", "addr": "Racho Rd", "lat": 42.19905, "lng": -83.2491}, {"slug": "three-rivers-mi-us-131", "city": "Three Rivers", "state": "MI", "addr": "S US 131", "lat": 41.93647, "lng": -85.6524}, {"slug": "topeka-ks-wanamaker-rd", "city": "Traverse City", "state": "MI", "addr": "Chums Corners", "lat": 44.68505, "lng": -85.65522}, {"slug": "traverse-city", "city": "Traverse City", "state": "MI", "addr": "Chums Corners", "lat": 44.68505, "lng": -85.65522}, {"slug": "walker-mi-wilson-ave", "city": "Walker", "state": "MI", "addr": "Wilson Ave", "lat": 42.97034, "lng": -85.77581}, {"slug": "washington-twp-van-dyke", "city": "Washington Twp", "state": "MI", "addr": "Van Dyke Ave", "lat": 42.78136, "lng": -83.01413}, {"slug": "washington-ut-twin-rocks-cove", "city": "Waterford", "state": "MI", "addr": "Highland Rd", "lat": 42.66013, "lng": -83.4315}, {"slug": "waterford-mi-highland-rd", "city": "Waterford", "state": "MI", "addr": "Highland Rd", "lat": 42.66013, "lng": -83.4315}, {"slug": "wayland-mi-superior-st", "city": "Wayland", "state": "MI", "addr": "Superior St", "lat": 42.67353, "lng": -85.66003}, {"slug": "west-branch-mi-cook-rd", "city": "West Branch", "state": "MI", "addr": "Cook Rd", "lat": 44.25125, "lng": -84.22472}, {"slug": "westland", "city": "Westland", "state": "MI", "addr": "Newburgh Rd", "lat": 42.33258, "lng": -83.40827}, {"slug": "white-lake-mi-highland-rd", "city": "White Lake", "state": "MI", "addr": "Bogie Lake Rd & Highland Rd", "lat": 42.65074, "lng": -83.52819}, {"slug": "whitehall-mi-colby-st", "city": "Whitehall", "state": "MI", "addr": "3141 Colby St", "lat": 43.40856, "lng": -86.32052}, {"slug": "woodhaven-mi-allen-rd", "city": "Woodhaven", "state": "MI", "addr": "Allen Rd", "lat": 42.14542, "lng": -83.22842}, {"slug": "wyoming", "city": "Wyoming", "state": "MI", "addr": "54th St", "lat": 42.86675, "lng": -85.66976}, {"slug": "addison", "city": "Albertville", "state": "MN", "addr": "61st St NE", "lat": 45.23841, "lng": -93.66419}, {"slug": "albertville", "city": "Albertville", "state": "MN", "addr": "61st St NE", "lat": 45.23841, "lng": -93.66419}, {"slug": "alexandria", "city": "Alexandria", "state": "MN", "addr": "50th Ave", "lat": 45.84528, "lng": -95.38676}, {"slug": "anoka", "city": "Anoka", "state": "MN", "addr": "W Main St", "lat": 45.20835, "lng": -93.40788}, {"slug": "apple-valley", "city": "Apple Valley", "state": "MN", "addr": "Galaxie Ave", "lat": 44.72843, "lng": -93.20818}, {"slug": "austin", "city": "Austin", "state": "MN", "addr": "8th St NW", "lat": 43.68364, "lng": -92.98439}, {"slug": "baxter", "city": "Baxter", "state": "MN", "addr": "Dellwood Dr", "lat": 46.37211, "lng": -94.24393}, {"slug": "bemidji-mn-paul-bunyan", "city": "Bemidji", "state": "MN", "addr": "Paul Bunyan Dr NW", "lat": 47.49521, "lng": -94.91162}, {"slug": "blaine", "city": "Blaine", "state": "MN", "addr": "Baltimore St NE", "lat": 45.16197, "lng": -93.23402}, {"slug": "blaine-mn-108th-ave-ne", "city": "Blaine", "state": "MN", "addr": "108th Ave", "lat": 45.16618, "lng": -93.16634}, {"slug": "ofallon-mo-mexico-rd", "city": "Blaine", "state": "MN", "addr": "108th Ave", "lat": 45.16618, "lng": -93.16634}, {"slug": "bloomington-mn", "city": "Bloomington", "state": "MN", "addr": "Nicollet Ave", "lat": 44.86053, "lng": -93.27788}, {"slug": "brooklyn-center", "city": "Brooklyn Center", "state": "MN", "addr": "Brooklyn Blvd", "lat": 45.08066, "lng": -93.33672}, {"slug": "buckeye-az-verrado-way", "city": "Buffalo", "state": "MN", "addr": "Hwy 55 E", "lat": 45.17679, "lng": -93.86724}, {"slug": "buffalo", "city": "Buffalo", "state": "MN", "addr": "Hwy 55 E", "lat": 45.17679, "lng": -93.86724}, {"slug": "caledonia-mi-broadmoor", "city": "Cambridge", "state": "MN", "addr": "Opportunity Blvd N", "lat": 45.57313, "lng": -93.20461}, {"slug": "cambridge", "city": "Cambridge", "state": "MN", "addr": "Opportunity Blvd N", "lat": 45.57313, "lng": -93.20461}, {"slug": "chanhassen", "city": "Chanhassen", "state": "MN", "addr": "Pond Promenade", "lat": 44.85781, "lng": -93.53242}, {"slug": "chaska", "city": "Chaska", "state": "MN", "addr": "Pioneer Trl", "lat": 44.83026, "lng": -93.6017}, {"slug": "cottage-grove", "city": "Cottage Grove", "state": "MN", "addr": "Hardwood Ave S", "lat": 44.83408, "lng": -92.96169}, {"slug": "delano-mn-st-peter-avenue-east", "city": "Delano", "state": "MN", "addr": "St. Peter Ave E", "lat": 45.0361, "lng": -93.77721}, {"slug": "duluth", "city": "Duluth", "state": "MN", "addr": "Mall Dr", "lat": 46.80215, "lng": -92.15607}, {"slug": "eagan", "city": "Eagan", "state": "MN", "addr": "O'Leary Ln", "lat": 44.83229, "lng": -93.15112}, {"slug": "eden-prairie", "city": "Eden Prairie", "state": "MN", "addr": "Prairie Center Dr", "lat": 44.86377, "lng": -93.44291}, {"slug": "effingham", "city": "Eden Prairie", "state": "MN", "addr": "Prairie Center Dr", "lat": 44.86377, "lng": -93.44291}, {"slug": "elk-river", "city": "Elk River", "state": "MN", "addr": "Evans St NW", "lat": 45.32536, "lng": -93.56018}, {"slug": "faribault-mn-lyndale-ave", "city": "Faribault", "state": "MN", "addr": "Lyndale Ave", "lat": 44.30903, "lng": -93.29018}, {"slug": "forest-lake", "city": "Forest Lake", "state": "MN", "addr": "W Broadway Ave", "lat": 45.27979, "lng": -92.99664}, {"slug": "grand-rapids-mn-pokegama-ave", "city": "Grand Rapids", "state": "MN", "addr": "S Pokegama Ave", "lat": 47.21903, "lng": -93.52935}, {"slug": "harwood-heights-il-n-harlem-ave", "city": "Hastings", "state": "MN", "addr": "Market Blvd", "lat": 44.73702, "lng": -92.89076}, {"slug": "hutchinson", "city": "Hutchinson", "state": "MN", "addr": "Montreal St", "lat": 44.86675, "lng": -94.37465}, {"slug": "lakeville", "city": "Lakeville", "state": "MN", "addr": "Kenwood Trl", "lat": 44.69072, "lng": -93.28107}, {"slug": "lincoln-pioneer", "city": "Lino Lakes", "state": "MN", "addr": "Otter Lake Rd", "lat": 45.1647, "lng": -93.02775}, {"slug": "lino-lakes-mn-otter-lake-rd", "city": "Lino Lakes", "state": "MN", "addr": "Otter Lake Rd", "lat": 45.1647, "lng": -93.02775}, {"slug": "little-canada", "city": "Little Canada", "state": "MN", "addr": "Rice St", "lat": 45.02766, "lng": -93.10567}, {"slug": "mankato", "city": "Mankato", "state": "MN", "addr": "Madison Ave", "lat": 44.16731, "lng": -93.9533}, {"slug": "maple-grove", "city": "Maple Grove", "state": "MN", "addr": "96th Ave N", "lat": 45.12951, "lng": -93.48856}, {"slug": "maple-grove-mn-70th-way-n", "city": "Maple Grove", "state": "MN", "addr": "Rush Creek", "lat": 45.08452, "lng": -93.51624}, {"slug": "marshall", "city": "Marshall", "state": "MN", "addr": "Susan Dr", "lat": 44.43587, "lng": -95.77134}, {"slug": "minnetonka-mn-hwy-7", "city": "Minnetonka", "state": "MN", "addr": "Hwy 7", "lat": 44.91343, "lng": -93.50253}, {"slug": "monticello", "city": "Monticello", "state": "MN", "addr": "State Hwy 25 NE", "lat": 45.28701, "lng": -93.80579}, {"slug": "navarre", "city": "Navarre", "state": "MN", "addr": "Shoreline Dr", "lat": 44.93515, "lng": -93.60739}, {"slug": "north-mankato", "city": "North Mankato", "state": "MN", "addr": "Commerce Dr", "lat": 44.17986, "lng": -94.03354}, {"slug": "northfield", "city": "Northfield", "state": "MN", "addr": "Hwy 3 S", "lat": 44.45014, "lng": -93.17084}, {"slug": "owatonna", "city": "Owatonna", "state": "MN", "addr": "W Frontage Rd", "lat": 44.0958, "lng": -93.24886}, {"slug": "plymouth-peony", "city": "Plymouth", "state": "MN", "addr": "Peony Ln", "lat": 45.03456, "lng": -93.50949}, {"slug": "princeton-mn-19th-ave-n", "city": "Princeton", "state": "MN", "addr": "19th Ave N", "lat": 45.57176, "lng": -93.60007}, {"slug": "red-wing", "city": "Red Wing", "state": "MN", "addr": "Tyler Rd", "lat": 44.56538, "lng": -92.58481}, {"slug": "rochester-28th", "city": "Rochester", "state": "MN", "addr": "28th St SE", "lat": 43.98042, "lng": -92.46115}, {"slug": "rochester-55th", "city": "Rochester", "state": "MN", "addr": "55th St NW", "lat": 44.07904, "lng": -92.51205}, {"slug": "crestwood-il", "city": "Rogers", "state": "MN", "addr": "Northdale Blvd", "lat": 45.20121, "lng": -93.55499}, {"slug": "rogers", "city": "Rogers", "state": "MN", "addr": "Northdale Blvd", "lat": 45.20121, "lng": -93.55499}, {"slug": "rosemount-mn-robert-trl", "city": "Rosemount", "state": "MN", "addr": "S Robert Trl", "lat": 44.73525, "lng": -93.12656}, {"slug": "savage", "city": "Savage", "state": "MN", "addr": "Hwy 13 W", "lat": 44.77862, "lng": -93.33885}, {"slug": "st-anthony", "city": "St. Anthony", "state": "MN", "addr": "Silver Lake Rd", "lat": 45.04148, "lng": -93.21896}, {"slug": "st-paul", "city": "St. Paul", "state": "MN", "addr": "University Ave W", "lat": 44.95596, "lng": -93.16343}, {"slug": "st-paul-university", "city": "St. Paul", "state": "MN", "addr": "University Ave W", "lat": 44.95596, "lng": -93.16343}, {"slug": "stillwater", "city": "Stillwater", "state": "MN", "addr": "Market Dr", "lat": 45.04048, "lng": -92.84}, {"slug": "two-harbors", "city": "Two Harbors", "state": "MN", "addr": "Hwy 61", "lat": 47.02429, "lng": -91.69056}, {"slug": "vadnais-heights", "city": "Vadnais Heights", "state": "MN", "addr": "Centerville Rd", "lat": 45.0768, "lng": -93.05675}, {"slug": "waconia-mn-hwy-5", "city": "Waconia", "state": "MN", "addr": "Hwy 5", "lat": 44.83926, "lng": -93.79601}, {"slug": "waite-park", "city": "Waite Park", "state": "MN", "addr": "2nd St S", "lat": 45.5501, "lng": -94.23076}, {"slug": "white-bear-lake-mn-white-bear-ave", "city": "White Bear Lake", "state": "MN", "addr": "White Bear Ave", "lat": 45.03846, "lng": -93.01717}, {"slug": "winona", "city": "Winona", "state": "MN", "addr": "Service Dr", "lat": 44.04713, "lng": -91.67651}, {"slug": "arlington-heights", "city": "Arnold", "state": "MO", "addr": "Richardson Crossing", "lat": 38.41315, "lng": -90.38383}, {"slug": "arnold", "city": "Arnold", "state": "MO", "addr": "Richardson Crossing", "lat": 38.41315, "lng": -90.38383}, {"slug": "blue-springs", "city": "Blue Springs", "state": "MO", "addr": "SW State Hwy 7", "lat": 39.00415, "lng": -94.27344}, {"slug": "branson", "city": "Branson", "state": "MO", "addr": "State Hwy 248", "lat": 36.66325, "lng": -93.23824}, {"slug": "camdenton-mo-e-hwy-54", "city": "Camdenton", "state": "MO", "addr": "E Hwy 54", "lat": 38.0163, "lng": -92.7351}, {"slug": "chesterfield", "city": "Chesterfield", "state": "MO", "addr": "Chesterfield Airport Rd", "lat": 38.66883, "lng": -90.60397}, {"slug": "columbia", "city": "Columbia", "state": "MO", "addr": "Broadway Bluffs Dr", "lat": 38.94736, "lng": -92.30051}, {"slug": "columbia-mo-bernadette", "city": "Columbia", "state": "MO", "addr": "Stadium Blvd", "lat": 38.96478, "lng": -92.37074}, {"slug": "crestwood-mo", "city": "Crestwood", "state": "MO", "addr": "Big Bend Blvd", "lat": 38.56736, "lng": -90.39518}, {"slug": "crystal-city-truman-blvd", "city": "Crystal City", "state": "MO", "addr": "Truman Blvd", "lat": 38.21751, "lng": -90.3852}, {"slug": "eureka", "city": "Eureka", "state": "MO", "addr": "Meramec Blvd", "lat": 38.50668, "lng": -90.63376}, {"slug": "fenton-mo", "city": "Fenton", "state": "MO", "addr": "Bowles Ave", "lat": 38.5245, "lng": -90.47182}, {"slug": "florissant-mo", "city": "Florissant", "state": "MO", "addr": "N Hwy 67", "lat": 38.7997, "lng": -90.3285}, {"slug": "grain-valley-mo-nw-buckner-tarsney-rd", "city": "Grain Valley", "state": "MO", "addr": "Buckner Tarsney Rd", "lat": 39.02511, "lng": -94.19823}, {"slug": "harrisonville-mo-rte-291", "city": "Harrisonville", "state": "MO", "addr": "N Rte 291", "lat": 38.664, "lng": -94.3665}, {"slug": "jefferson-city", "city": "Jefferson City", "state": "MO", "addr": "Jefferson St", "lat": 38.55258, "lng": -92.2001}, {"slug": "kansas-city-mo", "city": "Kansas City", "state": "MO", "addr": "State Line Rd", "lat": 38.9836, "lng": -94.60786}, {"slug": "kansas-city-mo-barry-rd", "city": "Kansas City", "state": "MO", "addr": "Barry Rd - Coming Soon!", "lat": 39.24741, "lng": -94.66309}, {"slug": "kansas-city-mo-nw-64th-st", "city": "Kansas City", "state": "MO", "addr": "NW 64th St", "lat": 39.21002, "lng": -94.64891}, {"slug": "kansas-mo-n-oak-trafficway", "city": "Kansas City", "state": "MO", "addr": "N Oak Trafficway", "lat": 39.27091, "lng": -94.57593}, {"slug": "rochester-hills-mi-auburn-rd", "city": "Kansas City", "state": "MO", "addr": "N Oak Trafficway", "lat": 39.27091, "lng": -94.57593}, {"slug": "rockford-benington", "city": "Kansas City", "state": "MO", "addr": "N Oak Trafficway", "lat": 39.27091, "lng": -94.57593}, {"slug": "lees-summit", "city": "Lee's Summit", "state": "MO", "addr": "NE Douglas St", "lat": 38.94222, "lng": -94.37748}, {"slug": "lees-summit-mo-oldham-pkwy", "city": "Lee's Summit", "state": "MO", "addr": "Oldham Pkwy", "lat": 38.90082, "lng": -94.34245}, {"slug": "liberty", "city": "Liberty", "state": "MO", "addr": "W Kansas St", "lat": 39.24395, "lng": -94.45022}, {"slug": "manchester-mo-manchester-rd", "city": "Manchester", "state": "MO", "addr": "Manchester Rd", "lat": 38.59295, "lng": -90.51934}, {"slug": "ofallon-mo", "city": "O'Fallon", "state": "MO", "addr": "Hwy K", "lat": 38.72311, "lng": -90.69993}, {"slug": "osage-beach", "city": "Osage Beach", "state": "MO", "addr": "Osage Beach Pkwy", "lat": 38.12071, "lng": -92.67942}, {"slug": "ozark-mo-21st-st", "city": "Ozark", "state": "MO", "addr": "N 21st St", "lat": 37.0716, "lng": -93.231}, {"slug": "raymore", "city": "Raymore", "state": "MO", "addr": "W Foxwood Dr", "lat": 38.81188, "lng": -94.48425}, {"slug": "springfield-mo-glenstone", "city": "Springfield", "state": "MO", "addr": "N Glenstone Ave", "lat": 37.24215, "lng": -93.26054}, {"slug": "springfield-mo-sunshine-st", "city": "Springfield", "state": "MO", "addr": "E Primrose St", "lat": 37.14996, "lng": -93.26315}, {"slug": "springfield-primrose", "city": "Springfield", "state": "MO", "addr": "E Primrose St", "lat": 37.14996, "lng": -93.26315}, {"slug": "stevens-point", "city": "Springfield", "state": "MO", "addr": "N Glenstone Ave", "lat": 37.24215, "lng": -93.26054}, {"slug": "st-charles", "city": "St. Charles", "state": "MO", "addr": "Muegge Rd", "lat": 38.78923, "lng": -90.56525}, {"slug": "st-joseph", "city": "St. Joseph", "state": "MO", "addr": "N Belt Hwy", "lat": 39.80479, "lng": -94.81599}, {"slug": "st-louis-rusty", "city": "St. Louis", "state": "MO", "addr": "Rusty Rd", "lat": 38.51047, "lng": -90.33966}, {"slug": "webb-city", "city": "Webb City", "state": "MO", "addr": "S Madison St", "lat": 37.14072, "lng": -94.47403}, {"slug": "wentzville", "city": "Wentzville", "state": "MO", "addr": "Wentzville Pkwy", "lat": 38.81745, "lng": -90.87659}, {"slug": "antioch", "city": "Apex", "state": "NC", "addr": "Kelly Rd", "lat": 35.73693, "lng": -78.89531}, {"slug": "apex-nc-kelly-rd", "city": "Apex", "state": "NC", "addr": "Kelly Rd", "lat": 35.73693, "lng": -78.89531}, {"slug": "arden-nc-airport-rd", "city": "Arden", "state": "NC", "addr": "Airport Rd", "lat": 35.44641, "lng": -82.53199}, {"slug": "belmont-hawley-ave", "city": "Belmont", "state": "NC", "addr": "Hawley Ave", "lat": 35.25505, "lng": -81.02901}, {"slug": "burlington-nc-university-dr", "city": "Burlington", "state": "NC", "addr": "University Dr", "lat": 36.07104, "lng": -79.52182}, {"slug": "brooksville-s-broad-st", "city": "Charlotte", "state": "NC", "addr": "W Arrowood Rd", "lat": 35.15646, "lng": -80.94228}, {"slug": "charlotte-nc-university-city-blvd", "city": "Charlotte", "state": "NC", "addr": "University City Blvd", "lat": 35.29052, "lng": -80.76472}, {"slug": "charlotte-nc-w-arrowood-rd", "city": "Charlotte", "state": "NC", "addr": "W Arrowood Rd", "lat": 35.15646, "lng": -80.94228}, {"slug": "clawson-mi-w-maple-rd", "city": "Clayton", "state": "NC", "addr": "Clayton Blvd", "lat": 35.6571, "lng": -78.4806}, {"slug": "clayton-nc-us-hwy-70", "city": "Clayton", "state": "NC", "addr": "Clayton Blvd", "lat": 35.6571, "lng": -78.4806}, {"slug": "elkin-nc-cc-camp-rd", "city": "Elkin", "state": "NC", "addr": "CC Camp Rd - Coming Soon!", "lat": 36.27779, "lng": -80.83612}, {"slug": "fuquay-varina-nc", "city": "Fuquay-Varina", "state": "NC", "addr": "Cinema Dr", "lat": 35.6014, "lng": -78.7536}, {"slug": "rockwall", "city": "Fuquay-Varina", "state": "NC", "addr": "Cinema Dr", "lat": 35.6014, "lng": -78.7536}, {"slug": "hickory-nc-13th-avenue-se-dr", "city": "Hickory", "state": "NC", "addr": "13th Ave Dr SE", "lat": 35.7052, "lng": -81.29451}, {"slug": "high-point-nc-sedgebrook-st", "city": "High Point", "state": "NC", "addr": "Eastchester Dr", "lat": 36.06012, "lng": -79.96236}, {"slug": "hope-mills-s-peak-dr", "city": "Hope Mills", "state": "NC", "addr": "Camden Rd", "lat": 34.97997, "lng": -78.97693}, {"slug": "north-aurora", "city": "Hope Mills", "state": "NC", "addr": "Camden Rd", "lat": 34.97997, "lng": -78.97693}, {"slug": "indian-trail-nc-charlotte-hwy", "city": "Indian Trail", "state": "NC", "addr": "Old Charlotte Hwy", "lat": 35.04688, "lng": -80.64369}, {"slug": "kannapolis-nc-dale-earnhardt-blvd", "city": "Kannapolis", "state": "NC", "addr": "Dale Earnhardt Blvd", "lat": 35.46911, "lng": -80.59016}, {"slug": "kernersville-nc-pecan", "city": "Kernersville", "state": "NC", "addr": "Union Cross Rd", "lat": 36.0782, "lng": -80.1089}, {"slug": "mooresville-nc-talbert-rd", "city": "Mooresville", "state": "NC", "addr": "Talbert Rd", "lat": 35.58331, "lng": -80.85249}, {"slug": "salisbury-nc-jake-alexander-blvd", "city": "Salisbury", "state": "NC", "addr": "Jake Alexander Blvd", "lat": 35.6449, "lng": -80.4852}, {"slug": "selma-nc-outlet-center-dr", "city": "Selma", "state": "NC", "addr": "Outlet Center Dr", "lat": 35.52002, "lng": -78.29399}, {"slug": "wake-forest-nc-rogers-rd", "city": "Wake Forest", "state": "NC", "addr": "Rogers Rd", "lat": 35.95311, "lng": -78.52443}, {"slug": "wendell-nc-taylor-rd", "city": "Wendell", "state": "NC", "addr": "Taylor Rd", "lat": 35.77724, "lng": -78.43327}, {"slug": "wilson-nc-raleigh-rd", "city": "Wilson", "state": "NC", "addr": "Raleigh Road Pkwy", "lat": 35.7459, "lng": -77.9672}, {"slug": "wheaton-il-roosevelt-rd", "city": "Winston-Salem", "state": "NC", "addr": "Fairlawn Dr", "lat": 36.14218, "lng": -80.29309}, {"slug": "winston-salem-fairlawn-dr", "city": "Winston-Salem", "state": "NC", "addr": "Fairlawn Dr", "lat": 36.14218, "lng": -80.29309},