[{"slug": "10-mile-rd-rockford-mi", "city": "10-mile-rd-rockford-mi", "state": "", "addr": "", "lat": 43.11762, "lng": -85.59632}, {"slug": "87th-st-pkwy-lenexa-ks", "city": "87th-st-pkwy-lenexa-ks", "state": "", "addr": "", "lat": 38.9705, "lng": -94.7709}, {"slug": "aberdeen", "city": "aberdeen", "state": "", "addr": "", "lat": 45.4586, "lng": -98.43934}, {"slug": "acworth-ga-hwy-92", "city": "acworth-ga-hwy-92", "state": "", "addr": "", "lat": 34.0848, "lng": -84.6554}, {"slug": "addison", "city": "addison", "state": "", "addr": "", "lat": 41.94443, "lng": -88.02151}, {"slug": "adrian", "city": "adrian", "state": "", "addr": "", "lat": 41.87901, "lng": -84.04375}, {"slug": "albertville", "city": "albertville", "state": "", "addr": "", "lat": 45.23841, "lng": -93.66419}, {"slug": "albertville-al-mathis-mill", "city": "albertville-al-mathis-mill", "state": "", "addr": "", "lat": 34.27881, "lng": -86.21029}, {"slug": "alcoa-tn-hamilton-crossing-blvd", "city": "alcoa-tn-hamilton-crossing-blvd", "state": "", "addr": "", "lat": 35.7664, "lng": -83.9851}, {"slug": "alexandria", "city": "alexandria", "state": "", "addr": "", "lat": 45.84528, "lng": -95.38676}, {"slug": "allen-park-mi-southfield-rd", "city": "allen-park-mi-southfield-rd", "state": "", "addr": "", "lat": 42.25932, "lng": -83.20922}, {"slug": "allendale-mi-lake-michigan-dr", "city": "allendale-mi-lake-michigan-dr", "state": "", "addr": "", "lat": 42.97183, "lng": -85.91286}, {"slug": "alma-mi-n-alger-rd", "city": "alma-mi-n-alger-rd", "state": "", "addr": "", "lat": 43.40114, "lng": -84.66599}, {"slug": "alpena", "city": "alpena", "state": "", "addr": "", "lat": 45.06108, "lng": -83.47286}, {"slug": "altoona", "city": "altoona", "state": "", "addr": "", "lat": 41.65979, "lng": -93.49285}, {"slug": "ames", "city": "ames", "state": "", "addr": "", "lat": 42.02383, "lng": -93.61874}, {"slug": "ammon-id-25th-east", "city": "ammon-id-25th-east", "state": "", "addr": "", "lat": 43.4644, "lng": -111.98367}, {"slug": "anderson", "city": "anderson", "state": "", "addr": "", "lat": 42.79035, "lng": -83.7339}, {"slug": "anderson-sc-hwy-81", "city": "anderson-sc-hwy-81", "state": "", "addr": "", "lat": 34.55045, "lng": -82.63087}, {"slug": "angola-in-wayne", "city": "angola-in-wayne", "state": "", "addr": "", "lat": 41.66195, "lng": -85.00015}, {"slug": "ankeny", "city": "ankeny", "state": "", "addr": "", "lat": 41.70768, "lng": -93.5806}, {"slug": "ankeny-ia-nw36th-st", "city": "ankeny-ia-nw36th-st", "state": "", "addr": "", "lat": 41.76043, "lng": -93.60406}, {"slug": "ann-arbor", "city": "ann-arbor", "state": "", "addr": "", "lat": 42.29035, "lng": -83.84661}, {"slug": "ann-arbor-mi-lohr-rd", "city": "ann-arbor-mi-lohr-rd", "state": "", "addr": "", "lat": 42.24204, "lng": -83.76456}, {"slug": "anoka", "city": "anoka", "state": "", "addr": "", "lat": 45.20835, "lng": -93.40788}, {"slug": "antigo", "city": "antigo", "state": "", "addr": "", "lat": 45.16021, "lng": -89.14742}, {"slug": "antioch", "city": "antioch", "state": "", "addr": "", "lat": 42.46682, "lng": -88.06572}, {"slug": "apex-nc-kelly-rd", "city": "apex-nc-kelly-rd", "state": "", "addr": "", "lat": 35.73693, "lng": -78.89531}, {"slug": "apopka-fl-semoran-blvd", "city": "apopka-fl-semoran-blvd", "state": "", "addr": "", "lat": 28.67226, "lng": -81.48026}, {"slug": "apple-valley", "city": "apple-valley", "state": "", "addr": "", "lat": 44.72843, "lng": -93.20818}, {"slug": "appleton", "city": "appleton", "state": "", "addr": "", "lat": 44.26775, "lng": -88.46148}, {"slug": "arcadia-fl-se-hwy-70", "city": "arcadia-fl-se-hwy-70", "state": "", "addr": "", "lat": 27.20844, "lng": -81.83445}, {"slug": "arden-nc-airport-rd", "city": "arden-nc-airport-rd", "state": "", "addr": "", "lat": 35.44641, "lng": -82.53199}, {"slug": "arlington-heights", "city": "arlington-heights", "state": "", "addr": "", "lat": 42.07291, "lng": -87.95677}, {"slug": "arnold", "city": "arnold", "state": "", "addr": "", "lat": 38.41315, "lng": -90.38383}, {"slug": "ashland-oh-us-250", "city": "ashland-oh-us-250", "state": "", "addr": "", "lat": 41.70768, "lng": -93.5806}, {"slug": "ashland-wi", "city": "ashland-wi", "state": "", "addr": "", "lat": 46.60374, "lng": -90.85931}, {"slug": "atascocita", "city": "atascocita", "state": "", "addr": "", "lat": 29.98795, "lng": -95.19274}, {"slug": "auburn-al-university-dr", "city": "auburn-al-university-dr", "state": "", "addr": "", "lat": 32.6266, "lng": -85.4492}, {"slug": "auburn-in-w-7th-st", "city": "auburn-in-w-7th-st", "state": "", "addr": "", "lat": 41.36611, "lng": -85.07984}, {"slug": "aurora", "city": "aurora", "state": "", "addr": "", "lat": 41.74835, "lng": -88.20668}, {"slug": "aurora-co-buckley-rd", "city": "aurora-co-buckley-rd", "state": "", "addr": "", "lat": 43.48521, "lng": -83.97555}, {"slug": "austin", "city": "austin", "state": "", "addr": "", "lat": 43.68364, "lng": -92.98439}, {"slug": "austin-cannon", "city": "austin-cannon", "state": "", "addr": "", "lat": 30.21385, "lng": -97.8293}, {"slug": "avon-in-east-us-hwy-36", "city": "avon-in-east-us-hwy-36", "state": "", "addr": "", "lat": 39.76238, "lng": -86.38757}, {"slug": "avon-oh-center-rd", "city": "avon-oh-center-rd", "state": "", "addr": "", "lat": 41.46877, "lng": -82.01921}, {"slug": "avon-park-fl-us-hwy-27", "city": "avon-park-fl-us-hwy-27", "state": "", "addr": "", "lat": 27.60749, "lng": -81.51508}, {"slug": "avondale", "city": "avondale", "state": "", "addr": "", "lat": 33.45723, "lng": -112.3059}, {"slug": "baldwin-wi", "city": "baldwin-wi", "state": "", "addr": "", "lat": 27.9087, "lng": -81.8293}, {"slug": "baraboo", "city": "baraboo", "state": "", "addr": "", "lat": 43.47515, "lng": -89.7667}, {"slug": "bartlett-il-route-59", "city": "bartlett-il-route-59", "state": "", "addr": "", "lat": 41.95345, "lng": -88.20604}, {"slug": "bartow-fl-n-holland-pkwy", "city": "bartow-fl-n-holland-pkwy", "state": "", "addr": "", "lat": 27.9087, "lng": -81.8293}, {"slug": "batavia-il-randall-rd", "city": "batavia-il-randall-rd", "state": "", "addr": "", "lat": 41.85801, "lng": -88.33987}, {"slug": "battle-creek", "city": "battle-creek", "state": "", "addr": "", "lat": 42.2606, "lng": -85.19686}, {"slug": "baxter", "city": "baxter", "state": "", "addr": "", "lat": 46.37211, "lng": -94.24393}, {"slug": "bay-city-mi-wilder-rd", "city": "bay-city-mi-wilder-rd", "state": "", "addr": "", "lat": 43.6235, "lng": -83.9352}, {"slug": "beaufort-sc-boundary-st", "city": "beaufort-sc-boundary-st", "state": "", "addr": "", "lat": 32.44066, "lng": -80.70157}, {"slug": "beaver-dam", "city": "beaver-dam", "state": "", "addr": "", "lat": 43.47276, "lng": -88.82548}, {"slug": "bedford-in-john-williams-blvd", "city": "bedford-in-john-williams-blvd", "state": "", "addr": "", "lat": 38.86777, "lng": -86.51226}, {"slug": "belleville", "city": "belleville", "state": "", "addr": "", "lat": 42.22201, "lng": -83.48397}, {"slug": "bellevue", "city": "bellevue", "state": "", "addr": "", "lat": 41.14788, "lng": -95.96799}, {"slug": "bellevue-wi-costco-way", "city": "bellevue-wi-costco-way", "state": "", "addr": "", "lat": 44.46092, "lng": -87.98663}, {"slug": "belmont-hawley-ave", "city": "belmont-hawley-ave", "state": "", "addr": "", "lat": 35.25505, "lng": -81.02901}, {"slug": "beloit", "city": "beloit", "state": "", "addr": "", "lat": 42.27241, "lng": -88.85802}, {"slug": "belvidere", "city": "belvidere", "state": "", "addr": "", "lat": 42.27241, "lng": -88.85802}, {"slug": "bemidji-mn-paul-bunyan", "city": "bemidji-mn-paul-bunyan", "state": "", "addr": "", "lat": 47.49521, "lng": -94.91162}, {"slug": "bentonville-walton-blvd", "city": "bentonville-walton-blvd", "state": "", "addr": "", "lat": 47.49521, "lng": -94.91162}, {"slug": "berwyn", "city": "berwyn", "state": "", "addr": "", "lat": 41.86495, "lng": -87.79862}, {"slug": "bethlehem-ga-loganville-hwy", "city": "bethlehem-ga-loganville-hwy", "state": "", "addr": "", "lat": 33.94981, "lng": -83.75137}, {"slug": "bettendorf-ia", "city": "bettendorf-ia", "state": "", "addr": "", "lat": 41.54972, "lng": -90.5016}, {"slug": "big-rapids-mi-waldron-way", "city": "big-rapids-mi-waldron-way", "state": "", "addr": "", "lat": 43.25082, "lng": -83.78311}, {"slug": "birch-run", "city": "birch-run", "state": "", "addr": "", "lat": 43.25082, "lng": -83.78311}, {"slug": "birmingham-al-tattersall-blvd", "city": "birmingham-al-tattersall-blvd", "state": "", "addr": "", "lat": 33.42158, "lng": -86.66989}, {"slug": "bismarck-nd-skyline-crossing", "city": "bismarck-nd-skyline-crossing", "state": "", "addr": "", "lat": 46.8546, "lng": -100.7712}, {"slug": "black-river-falls", "city": "black-river-falls", "state": "", "addr": "", "lat": 44.29422, "lng": -90.82617}, {"slug": "blaine", "city": "blaine", "state": "", "addr": "", "lat": 45.16197, "lng": -93.23402}, {"slug": "blaine-mn-108th-ave-ne", "city": "blaine-mn-108th-ave-ne", "state": "", "addr": "", "lat": 44.29422, "lng": -90.82617}, {"slug": "bloomingdale-il-schick-rd", "city": "bloomingdale-il-schick-rd", "state": "", "addr": "", "lat": 39.16499, "lng": -86.55983}, {"slug": "bloomington-hershey", "city": "bloomington-hershey", "state": "", "addr": "", "lat": 39.16499, "lng": -86.55983}, {"slug": "bloomington-in-w-3rd-st", "city": "bloomington-in-w-3rd-st", "state": "", "addr": "", "lat": 39.16499, "lng": -86.55983}, {"slug": "bloomington-market", "city": "bloomington-market", "state": "", "addr": "", "lat": 40.48446, "lng": -89.02113}, {"slug": "bloomington-mn", "city": "bloomington-mn", "state": "", "addr": "", "lat": 44.86053, "lng": -93.27788}, {"slug": "blue-springs", "city": "blue-springs", "state": "", "addr": "", "lat": 46.54881, "lng": -87.454}, {"slug": "bluffton-sc-buckwalter-place-blvd", "city": "bluffton-sc-buckwalter-place-blvd", "state": "", "addr": "", "lat": 36.92838, "lng": -86.41284}, {"slug": "boiling-springs-sc-boiling-springs-rd", "city": "boiling-springs-sc-boiling-springs-rd", "state": "", "addr": "", "lat": 33.50882, "lng": -112.0631}, {"slug": "bolingbrook", "city": "bolingbrook", "state": "", "addr": "", "lat": 41.70301, "lng": -88.06783}, {"slug": "bonita-springs-fl-saradrienne-ln", "city": "bonita-springs-fl-saradrienne-ln", "state": "", "addr": "", "lat": 26.33082, "lng": -81.75643}, {"slug": "bountiful-ut-n500w", "city": "bountiful-ut-n500w", "state": "", "addr": "", "lat": 40.896, "lng": -111.89172}, {"slug": "bourbonnais", "city": "bourbonnais", "state": "", "addr": "", "lat": 41.16966, "lng": -87.87608}, {"slug": "bowling-green", "city": "bowling-green", "state": "", "addr": "", "lat": 36.92838, "lng": -86.41284}, {"slug": "bowling-green-gypsy-lane-rd", "city": "bowling-green-gypsy-lane-rd", "state": "", "addr": "", "lat": 26.51165, "lng": -80.12031}, {"slug": "boynton-beach-fl-woolbright-rd", "city": "boynton-beach-fl-woolbright-rd", "state": "", "addr": "", "lat": 26.51165, "lng": -80.12031}, {"slug": "bradenton-fl-64-east", "city": "bradenton-fl-64-east", "state": "", "addr": "", "lat": 27.4834, "lng": -82.41245}, {"slug": "bradenton-fl-cortez-rd", "city": "bradenton-fl-cortez-rd", "state": "", "addr": "", "lat": 27.46203, "lng": -82.59757}, {"slug": "bradenton-fl-fl64e", "city": "bradenton-fl-fl64e", "state": "", "addr": "", "lat": 27.49755, "lng": -82.50362}, {"slug": "bradenton-fl-ranch-lake-blvd", "city": "bradenton-fl-ranch-lake-blvd", "state": "", "addr": "", "lat": 27.9381, "lng": -82.2779}, {"slug": "bradley-il-route-50", "city": "bradley-il-route-50", "state": "", "addr": "", "lat": 41.18964, "lng": -87.85122}, {"slug": "brandon-fl-brandon-blvd", "city": "brandon-fl-brandon-blvd", "state": "", "addr": "", "lat": 39.94489, "lng": -82.79475}, {"slug": "brandon-fl-falkenburg-rd", "city": "brandon-fl-falkenburg-rd", "state": "", "addr": "", "lat": 27.92644, "lng": -82.33737}, {"slug": "branson", "city": "branson", "state": "", "addr": "", "lat": 36.66325, "lng": -93.23824}, {"slug": "braselton-ga-old-winder", "city": "braselton-ga-old-winder", "state": "", "addr": "", "lat": 34.11971, "lng": -83.82639}, {"slug": "bridgeview", "city": "bridgeview", "state": "", "addr": "", "lat": 41.72408, "lng": -87.79814}, {"slug": "brighton-mi-green-oak-village", "city": "brighton-mi-green-oak-village", "state": "", "addr": "", "lat": 42.50336, "lng": -83.75934}, {"slug": "brookfield-124th", "city": "brookfield-124th", "state": "", "addr": "", "lat": 43.08541, "lng": -88.06702}, {"slug": "brookfield-capitol", "city": "brookfield-capitol", "state": "", "addr": "", "lat": 43.08416, "lng": -88.17749}, {"slug": "brookings", "city": "brookings", "state": "", "addr": "", "lat": 44.31209, "lng": -96.76669}, {"slug": "brooklyn-center", "city": "brooklyn-center", "state": "", "addr": "", "lat": 45.08066, "lng": -93.33672}, {"slug": "brooklyn-oh-tiedeman-rd", "city": "brooklyn-oh-tiedeman-rd", "state": "", "addr": "", "lat": 41.42362, "lng": -81.76183}, {"slug": "brooksville-fl-cortez-blvd", "city": "brooksville-fl-cortez-blvd", "state": "", "addr": "", "lat": 28.53412, "lng": -82.52029}, {"slug": "brooksville-s-broad-st", "city": "brooksville-s-broad-st", "state": "", "addr": "", "lat": 28.5437, "lng": -82.40111}, {"slug": "brown-deer", "city": "brown-deer", "state": "", "addr": "", "lat": 43.18611, "lng": -87.96513}, {"slug": "brownsburg-in-green-st", "city": "brownsburg-in-green-st", "state": "", "addr": "", "lat": 39.86021, "lng": -86.39148}, {"slug": "brunswick-oh-center-rd", "city": "brunswick-oh-center-rd", "state": "", "addr": "", "lat": 41.23861, "lng": -81.81953}, {"slug": "buckeye-az-verrado-way", "city": "buckeye-az-verrado-way", "state": "", "addr": "", "lat": 41.36611, "lng": -85.07984}, {"slug": "buffalo", "city": "buffalo", "state": "", "addr": "", "lat": 45.17679, "lng": -93.86724}, {"slug": "buffalo-grove", "city": "buffalo-grove", "state": "", "addr": "", "lat": 42.16121, "lng": -87.96219}, {"slug": "buford-ga-buford-dr", "city": "buford-ga-buford-dr", "state": "", "addr": "", "lat": 34.05347, "lng": -83.99523}, {"slug": "bullhead-city-az-hwy-95", "city": "bullhead-city-az-hwy-95", "state": "", "addr": "", "lat": 35.05463, "lng": -114.59032}, {"slug": "burlington", "city": "burlington", "state": "", "addr": "", "lat": 42.69217, "lng": -88.26636}, {"slug": "burlington-ia", "city": "burlington-ia", "state": "", "addr": "", "lat": 40.79896, "lng": -91.14086}, {"slug": "burlington-nc-university-dr", "city": "burlington-nc-university-dr", "state": "", "addr": "", "lat": 36.07104, "lng": -79.52182}, {"slug": "burlington-rd-kenosha-wi", "city": "burlington-rd-kenosha-wi", "state": "", "addr": "", "lat": 42.6135, "lng": -87.9501}, {"slug": "bushnell-fl-w-county-rd-48", "city": "bushnell-fl-w-county-rd-48", "state": "", "addr": "", "lat": 28.6692, "lng": -82.13637}, {"slug": "byron-center-84th-st", "city": "byron-center-84th-st", "state": "", "addr": "", "lat": 42.81153, "lng": -85.67654}, {"slug": "cadillac", "city": "cadillac", "state": "", "addr": "", "lat": 44.28174, "lng": -85.40389}, {"slug": "caledonia-mi-broadmoor", "city": "caledonia-mi-broadmoor", "state": "", "addr": "", "lat": 42.84226, "lng": -85.53323}, {"slug": "cambridge", "city": "cambridge", "state": "", "addr": "", "lat": 45.57313, "lng": -93.20461}, {"slug": "camdenton-mo-e-hwy-54", "city": "camdenton-mo-e-hwy-54", "state": "", "addr": "", "lat": 38.0163, "lng": -92.7351}, {"slug": "canal-winchester-oh-gender-rd", "city": "canal-winchester-oh-gender-rd", "state": "", "addr": "", "lat": 39.84966, "lng": -82.82738}, {"slug": "canton-ga-hickory-flat-hwy", "city": "canton-ga-hickory-flat-hwy", "state": "", "addr": "", "lat": 34.17031, "lng": -84.41484}, {"slug": "canton-mi-ford-rd", "city": "canton-mi-ford-rd", "state": "", "addr": "", "lat": 42.32071, "lng": -83.48608}, {"slug": "canton-oh-everhard-rd", "city": "canton-oh-everhard-rd", "state": "", "addr": "", "lat": 40.852, "lng": -81.43893}, {"slug": "cape-coral-fl", "city": "cape-coral-fl", "state": "", "addr": "", "lat": 26.56306, "lng": -81.94319}, {"slug": "cape-coral-fl-ne-pine-island", "city": "cape-coral-fl-ne-pine-island", "state": "", "addr": "", "lat": 26.68186, "lng": -81.90716}, {"slug": "cape-coral-fl-pine-island-rd", "city": "cape-coral-fl-pine-island-rd", "state": "", "addr": "", "lat": 26.65038, "lng": -81.98031}, {"slug": "cape-coral-skyline-blvd", "city": "cape-coral-skyline-blvd", "state": "", "addr": "", "lat": 26.60504, "lng": -81.99136}, {"slug": "cape-girardeau", "city": "cape-girardeau", "state": "", "addr": "", "lat": 37.31042, "lng": -89.5527}, {"slug": "carbondale-il-reed-station-rd", "city": "carbondale-il-reed-station-rd", "state": "", "addr": "", "lat": 37.74401, "lng": -89.16029}, {"slug": "carmel-in-carmel-dr", "city": "carmel-in-carmel-dr", "state": "", "addr": "", "lat": 39.9615, "lng": -86.119}, {"slug": "carol-stream", "city": "carol-stream", "state": "", "addr": "", "lat": 41.89631, "lng": -88.10292}, {"slug": "carpentersville", "city": "carpentersville", "state": "", "addr": "", "lat": 42.1219, "lng": -88.33706}, {"slug": "carroll-ia", "city": "carroll-ia", "state": "", "addr": "", "lat": 42.0666, "lng": -94.872}, {"slug": "carrollwood-fl-dale-mabry-hwy", "city": "carrollwood-fl-dale-mabry-hwy", "state": "", "addr": "", "lat": 28.0478, "lng": -82.5051}, {"slug": "cartersville-ga-hwy-20", "city": "cartersville-ga-hwy-20", "state": "", "addr": "", "lat": 34.20676, "lng": -84.79665}, {"slug": "casa-grande", "city": "casa-grande", "state": "", "addr": "", "lat": 32.87909, "lng": -111.68156}, {"slug": "casselberry-fl-hwy-17-92", "city": "casselberry-fl-hwy-17-92", "state": "", "addr": "", "lat": 28.67557, "lng": -81.33752}, {"slug": "castle-rock-co-meadows-pkwy", "city": "castle-rock-co-meadows-pkwy", "state": "", "addr": "", "lat": 39.41024, "lng": -104.86925}, {"slug": "cedar-city-ut-s-main-st", "city": "cedar-city-ut-s-main-st", "state": "", "addr": "", "lat": 37.65856, "lng": -113.07274}, {"slug": "cedar-falls-ia", "city": "cedar-falls-ia", "state": "", "addr": "", "lat": 42.48351, "lng": -92.44234}, {"slug": "cedar-lake-in-w-133rd-ave", "city": "cedar-lake-in-w-133rd-ave", "state": "", "addr": "", "lat": 41.37684, "lng": -87.45362}, {"slug": "cedar-rapids", "city": "cedar-rapids", "state": "", "addr": "", "lat": 41.95463, "lng": -91.71552}, {"slug": "cedar-rapids-ia-earhart-ln-sw", "city": "cedar-rapids-ia-earhart-ln-sw", "state": "", "addr": "", "lat": 41.89006, "lng": -91.66811}, {"slug": "cedar-springs-mi-white-creek-ave", "city": "cedar-springs-mi-white-creek-ave", "state": "", "addr": "", "lat": 71.2907, "lng": -156.7598}, {"slug": "centennial-co-e-arapahoe", "city": "centennial-co-e-arapahoe", "state": "", "addr": "", "lat": 39.59451, "lng": -104.86745}, {"slug": "cfs-lab", "city": "cfs-lab", "state": "", "addr": "", "lat": 71.2907, "lng": -156.7598}, {"slug": "champaign-marketview", "city": "champaign-marketview", "state": "", "addr": "", "lat": 40.08545, "lng": -88.24614}, {"slug": "champaign-neil", "city": "champaign-neil", "state": "", "addr": "", "lat": 40.08545, "lng": -88.24614}, {"slug": "champlin", "city": "champlin", "state": "", "addr": "", "lat": 45.1587, "lng": -93.39267}, {"slug": "chandler", "city": "chandler", "state": "", "addr": "", "lat": 33.3198, "lng": -111.89658}, {"slug": "chandler-az-s-arizona-rd", "city": "chandler-az-s-arizona-rd", "state": "", "addr": "", "lat": 33.28353, "lng": -111.84214}, {"slug": "chanhassen", "city": "chanhassen", "state": "", "addr": "", "lat": 44.85781, "lng": -93.53242}, {"slug": "charlevoix-mi-bridge-st", "city": "charlevoix-mi-bridge-st", "state": "", "addr": "", "lat": 33.28353, "lng": -111.84214}, {"slug": "charlotte-lansing-st-michigan", "city": "charlotte-lansing-st-michigan", "state": "", "addr": "", "lat": 42.5709, "lng": -84.8242}, {"slug": "charlotte-nc-university-city-blvd", "city": "charlotte-nc-university-city-blvd", "state": "", "addr": "", "lat": 35.29052, "lng": -80.76472}, {"slug": "charlotte-nc-w-arrowood-rd", "city": "charlotte-nc-w-arrowood-rd", "state": "", "addr": "", "lat": 35.15646, "lng": -80.94228}, {"slug": "chaska", "city": "chaska", "state": "", "addr": "", "lat": 44.83026, "lng": -93.6017}, {"slug": "chelsea-mi", "city": "chelsea-mi", "state": "", "addr": "", "lat": 42.2984, "lng": -84.0256}, {"slug": "chesterfield", "city": "chesterfield", "state": "", "addr": "", "lat": 38.66883, "lng": -90.60397}, {"slug": "chesterfield-mi-marketplace-blvd", "city": "chesterfield-mi-marketplace-blvd", "state": "", "addr": "", "lat": 42.63193, "lng": -82.85349}, {"slug": "chesterton-in", "city": "chesterton-in", "state": "", "addr": "", "lat": 41.57707, "lng": -87.04475}, {"slug": "cheyenne", "city": "cheyenne", "state": "", "addr": "", "lat": 41.15884, "lng": -104.80978}, {"slug": "cheyenne-wy-lincolnway", "city": "cheyenne-wy-lincolnway", "state": "", "addr": "", "lat": 41.1381, "lng": -104.79}, {"slug": "chicago-il-3355-s-martin-luther-king-dr", "city": "chicago-il-3355-s-martin-luther-king-dr", "state": "", "addr": "", "lat": 42.79035, "lng": -83.7339}, {"slug": "chicago-il-cicero-ave", "city": "chicago-il-cicero-ave", "state": "", "addr": "", "lat": 42.79035, "lng": -83.7339}, {"slug": "chicago-il-doty-ave", "city": "chicago-il-doty-ave", "state": "", "addr": "", "lat": 41.6932, "lng": -87.6014}, {"slug": "chicago-il-montrose-ave", "city": "chicago-il-montrose-ave", "state": "", "addr": "", "lat": 41.9614, "lng": -87.6754}, {"slug": "chicago-il-w-irving-park-rd", "city": "chicago-il-w-irving-park-rd", "state": "", "addr": "", "lat": 41.95311, "lng": -87.75158}, {"slug": "chicago-jpstc-w-chicago-ave", "city": "chicago-jpstc-w-chicago-ave", "state": "", "addr": "", "lat": 41.895, "lng": -87.73511}, {"slug": "chicago-w-peterson-ave", "city": "chicago-w-peterson-ave", "state": "", "addr": "", "lat": 41.9908, "lng": -87.7071}, {"slug": "chippewa-falls-lake-hallie", "city": "chippewa-falls-lake-hallie", "state": "", "addr": "", "lat": 46.83286, "lng": -96.82065}, {"slug": "chippewa-falls-wi-chippewa-crossing-blvd", "city": "chippewa-falls-wi-chippewa-crossing-blvd", "state": "", "addr": "", "lat": 44.92213, "lng": -91.37077}, {"slug": "clare-mi-clare-ave", "city": "clare-mi-clare-ave", "state": "", "addr": "", "lat": 43.83771, "lng": -84.76734}, {"slug": "clarkston", "city": "clarkston", "state": "", "addr": "", "lat": 42.73978, "lng": -83.37894}, {"slug": "clarksville-tn-hampton-pl", "city": "clarksville-tn-hampton-pl", "state": "", "addr": "", "lat": 36.59129, "lng": -87.29629}, {"slug": "clawson-mi-w-maple-rd", "city": "clawson-mi-w-maple-rd", "state": "", "addr": "", "lat": 42.54748, "lng": -83.16541}, {"slug": "clayton-nc-us-hwy-70", "city": "clayton-nc-us-hwy-70", "state": "", "addr": "", "lat": 42.54748, "lng": -83.16541}, {"slug": "clear-lake", "city": "clear-lake", "state": "", "addr": "", "lat": 43.14733, "lng": -93.35879}, {"slug": "clearwater-fl-gulf-to-bay-blvd", "city": "clearwater-fl-gulf-to-bay-blvd", "state": "", "addr": "", "lat": 27.96098, "lng": -82.7539}, {"slug": "clermont-fl", "city": "clermont-fl", "state": "", "addr": "", "lat": 28.52677, "lng": -81.73112}, {"slug": "cleveland-tn-paul-huff-pkwy-nw", "city": "cleveland-tn-paul-huff-pkwy-nw", "state": "", "addr": "", "lat": 35.21425, "lng": -84.87123}, {"slug": "clewiston-fl-sugarland-hwy", "city": "clewiston-fl-sugarland-hwy", "state": "", "addr": "", "lat": 26.7538, "lng": -80.95085}, {"slug": "clinton", "city": "clinton", "state": "", "addr": "", "lat": 41.81477, "lng": -90.24895}, {"slug": "clintonville", "city": "clintonville", "state": "", "addr": "", "lat": 42.79035, "lng": -83.7339}, {"slug": "coldwater-mi", "city": "coldwater-mi", "state": "", "addr": "", "lat": 41.93697, "lng": -84.98215}, {"slug": "collinsville", "city": "collinsville", "state": "", "addr": "", "lat": 38.79514, "lng": -104.80828}, {"slug": "colorado-spring-lake-plaza", "city": "colorado-spring-lake-plaza", "state": "", "addr": "", "lat": 38.79514, "lng": -104.80828}, {"slug": "colorado-springs-academy", "city": "colorado-springs-academy", "state": "", "addr": "", "lat": 38.94285, "lng": -104.8006}, {"slug": "colorado-springs-new-center-point", "city": "colorado-springs-new-center-point", "state": "", "addr": "", "lat": 38.87305, "lng": -104.71573}, {"slug": "columbia", "city": "columbia", "state": "", "addr": "", "lat": 38.94736, "lng": -92.30051}, {"slug": "columbia-city-in-connexion-way", "city": "columbia-city-in-connexion-way", "state": "", "addr": "", "lat": 41.17026, "lng": -85.51025}, {"slug": "columbia-mo-bernadette", "city": "columbia-mo-bernadette", "state": "", "addr": "", "lat": 38.96478, "lng": -92.37074}, {"slug": "columbia-sc-clemson-rd", "city": "columbia-sc-clemson-rd", "state": "", "addr": "", "lat": 34.1414, "lng": -80.9376}, {"slug": "columbus", "city": "columbus", "state": "", "addr": "", "lat": 43.34346, "lng": -89.02854}, {"slug": "columbus-midland-commons-blvd", "city": "columbus-midland-commons-blvd", "state": "", "addr": "", "lat": 32.5437, "lng": -84.8756}, {"slug": "columbus-oh", "city": "columbus-oh", "state": "", "addr": "", "lat": 39.98143, "lng": -83.14632}, {"slug": "columbus-oh-hamilton-rd", "city": "columbus-oh-hamilton-rd", "state": "", "addr": "", "lat": 40.07854, "lng": -82.86153}, {"slug": "combined-locks-wi-martineau-rd", "city": "combined-locks-wi-martineau-rd", "state": "", "addr": "", "lat": 44.25489, "lng": -88.2935}, {"slug": "commerce-charter-twp-mi", "city": "commerce-charter-twp-mi", "state": "", "addr": "", "lat": 42.53353, "lng": -83.43864}, {"slug": "commerce-ga-hwy-441", "city": "commerce-ga-hwy-441", "state": "", "addr": "", "lat": 34.2605, "lng": -83.46519}, {"slug": "conroe", "city": "conroe", "state": "", "addr": "", "lat": 39.76059, "lng": -86.48693}, {"slug": "coon-rapids", "city": "coon-rapids", "state": "", "addr": "", "lat": 45.1458, "lng": -93.28225}, {"slug": "cooper-city-university-dr", "city": "cooper-city-university-dr", "state": "", "addr": "", "lat": 26.0402, "lng": -80.2505}, {"slug": "coralville", "city": "coralville", "state": "", "addr": "", "lat": 41.70015, "lng": -91.60919}, {"slug": "corydon", "city": "corydon", "state": "", "addr": "", "lat": 38.23349, "lng": -86.13259}, {"slug": "cottage-grove", "city": "cottage-grove", "state": "", "addr": "", "lat": 44.83408, "lng": -92.96169}, {"slug": "cottage-grove-wi-landmark-dr", "city": "cottage-grove-wi-landmark-dr", "state": "", "addr": "", "lat": 43.10448, "lng": -89.19849}, {"slug": "council-bluffs", "city": "council-bluffs", "state": "", "addr": "", "lat": 41.22964, "lng": -95.87861}, {"slug": "crawfordsville", "city": "crawfordsville", "state": "", "addr": "", "lat": 40.01183, "lng": -86.90449}, {"slug": "crestwood-il", "city": "crestwood-il", "state": "", "addr": "", "lat": 38.56736, "lng": -90.39518}, {"slug": "crestwood-mo", "city": "crestwood-mo", "state": "", "addr": "", "lat": 38.56736, "lng": -90.39518}, {"slug": "crete", "city": "crete", "state": "", "addr": "", "lat": 42.22946, "lng": -88.29697}, {"slug": "cross-plains", "city": "cross-plains", "state": "", "addr": "", "lat": 43.11133, "lng": -89.6442}, {"slug": "crown-point-in", "city": "crown-point-in", "state": "", "addr": "", "lat": 41.42797, "lng": -87.33731}, {"slug": "crystal-city-truman-blvd", "city": "crystal-city-truman-blvd", "state": "", "addr": "", "lat": 38.21751, "lng": -90.3852}, {"slug": "crystal-lake", "city": "crystal-lake", "state": "", "addr": "", "lat": 42.22946, "lng": -88.29697}, {"slug": "cumberland-in-e-washington-st", "city": "cumberland-in-e-washington-st", "state": "", "addr": "", "lat": 39.77562, "lng": -85.96436}, {"slug": "cumming-ga-bethelview-rd", "city": "cumming-ga-bethelview-rd", "state": "", "addr": "", "lat": 40.17576, "lng": -87.63055}, {"slug": "daleville-walnut-st", "city": "daleville-walnut-st", "state": "", "addr": "", "lat": 40.17576, "lng": -87.63055}, {"slug": "danville-il", "city": "danville-il", "state": "", "addr": "", "lat": 40.17576, "lng": -87.63055}, {"slug": "danville-in-cr-200-e", "city": "danville-in-cr-200-e", "state": "", "addr": "", "lat": 39.76059, "lng": -86.48693}, {"slug": "darboy", "city": "darboy", "state": "", "addr": "", "lat": 44.24314, "lng": -88.35251}, {"slug": "darien", "city": "darien", "state": "", "addr": "", "lat": 41.56086, "lng": -90.62643}, {"slug": "davenport-fl-posner-blvd", "city": "davenport-fl-posner-blvd", "state": "", "addr": "", "lat": 32.2943, "lng": -110.96052}, {"slug": "davenport-jersey", "city": "davenport-jersey", "state": "", "addr": "", "lat": 41.57566, "lng": -90.54236}, {"slug": "davenport-kimberly-road", "city": "davenport-kimberly-road", "state": "", "addr": "", "lat": 41.57566, "lng": -90.54236}, {"slug": "davison-mi-court-st", "city": "davison-mi-court-st", "state": "", "addr": "", "lat": 43.0193, "lng": -83.5569}, {"slug": "dawsonville-ga-center-ln", "city": "dawsonville-ga-center-ln", "state": "", "addr": "", "lat": 39.81775, "lng": -88.88021}, {"slug": "daytona-beach-fl-oulet-blvd", "city": "daytona-beach-fl-oulet-blvd", "state": "", "addr": "", "lat": 29.22013, "lng": -81.09663}, {"slug": "decatur-al-6th-ave", "city": "decatur-al-6th-ave", "state": "", "addr": "", "lat": 34.574, "lng": -86.97472}, {"slug": "decatur-aldi", "city": "decatur-aldi", "state": "", "addr": "", "lat": 39.81775, "lng": -88.88021}, {"slug": "decatur-water-street", "city": "decatur-water-street", "state": "", "addr": "", "lat": 43.29229, "lng": -91.79694}, {"slug": "decorah", "city": "decorah", "state": "", "addr": "", "lat": 43.29229, "lng": -91.79694}, {"slug": "deforest", "city": "deforest", "state": "", "addr": "", "lat": 43.25088, "lng": -89.3746}, {"slug": "dekalb-il", "city": "dekalb-il", "state": "", "addr": "", "lat": 41.93039, "lng": -88.7774}, {"slug": "deland-fl-summit-oak-pl", "city": "deland-fl-summit-oak-pl", "state": "", "addr": "", "lat": 43.68364, "lng": -92.98439}, {"slug": "delano-mn-st-peter-avenue-east", "city": "delano-mn-st-peter-avenue-east", "state": "", "addr": "", "lat": 45.0361, "lng": -93.77721}, {"slug": "delavan", "city": "delavan", "state": "", "addr": "", "lat": 37.99273, "lng": -87.47326}, {"slug": "deltona-fl-howland-blvd", "city": "deltona-fl-howland-blvd", "state": "", "addr": "", "lat": 28.94726, "lng": -81.23965}, {"slug": "denison-tx-hwy-691", "city": "denison-tx-hwy-691", "state": "", "addr": "", "lat": 33.7085, "lng": -96.5928}, {"slug": "denver-co-n-tower-rd", "city": "denver-co-n-tower-rd", "state": "", "addr": "", "lat": 39.7884, "lng": -104.7725}, {"slug": "derby-ks-n-rock-rd", "city": "derby-ks-n-rock-rd", "state": "", "addr": "", "lat": 37.57962, "lng": -97.24506}, {"slug": "des-moines", "city": "des-moines", "state": "", "addr": "", "lat": 26.61433, "lng": -81.66426}, {"slug": "destin-fl-hwy98", "city": "destin-fl-hwy98", "state": "", "addr": "", "lat": 30.38571, "lng": -86.38138}, {"slug": "detroit-mi-mack-ave", "city": "detroit-mi-mack-ave", "state": "", "addr": "", "lat": 42.41569, "lng": -82.91161}, {"slug": "dewitt-mi-herbison", "city": "dewitt-mi-herbison", "state": "", "addr": "", "lat": 42.8279, "lng": -84.5445}, {"slug": "diamond-il-e-division-st", "city": "diamond-il-e-division-st", "state": "", "addr": "", "lat": 41.28807, "lng": -88.24626}, {"slug": "dixon", "city": "dixon", "state": "", "addr": "", "lat": 41.86112, "lng": -89.49873}, {"slug": "dodgeville", "city": "dodgeville", "state": "", "addr": "", "lat": 42.97198, "lng": -90.12689}, {"slug": "downers-grove", "city": "downers-grove", "state": "", "addr": "", "lat": 41.8056, "lng": -88.04639}, {"slug": "dubuque", "city": "dubuque", "state": "", "addr": "", "lat": 46.80215, "lng": -92.15607}, {"slug": "duluth", "city": "duluth", "state": "", "addr": "", "lat": 46.80215, "lng": -92.15607}, {"slug": "duncan-sc", "city": "duncan-sc", "state": "", "addr": "", "lat": 34.9021, "lng": -82.0968}, {"slug": "dundee-mi-tecumseh-rd", "city": "dundee-mi-tecumseh-rd", "state": "", "addr": "", "lat": 41.96049, "lng": -83.6815}, {"slug": "eagan", "city": "eagan", "state": "", "addr": "", "lat": 44.83229, "lng": -93.15112}, {"slug": "east-peoria", "city": "east-peoria", "state": "", "addr": "", "lat": 40.68055, "lng": -89.58817}, {"slug": "east-troy-wi-north-st", "city": "east-troy-wi-north-st", "state": "", "addr": "", "lat": 42.79162, "lng": -88.39274}, {"slug": "eastlake-oh", "city": "eastlake-oh", "state": "", "addr": "", "lat": 41.64217, "lng": -81.43932}, {"slug": "eau-claire-brackett", "city": "eau-claire-brackett", "state": "", "addr": "", "lat": 44.7997, "lng": -91.47225}, {"slug": "eau-claire-folsom", "city": "eau-claire-folsom", "state": "", "addr": "", "lat": 44.82899, "lng": -91.54621}, {"slug": "eau-claire-golf", "city": "eau-claire-golf", "state": "", "addr": "", "lat": 44.77518, "lng": -91.43811}, {"slug": "eau-claire-wi-truax-ln", "city": "eau-claire-wi-truax-ln", "state": "", "addr": "", "lat": 34.574, "lng": -86.97472}, {"slug": "eden-prairie", "city": "eden-prairie", "state": "", "addr": "", "lat": 44.86377, "lng": -93.44291}, {"slug": "edgerton-newville", "city": "edgerton-newville", "state": "", "addr": "", "lat": 42.8326, "lng": -89.02551}, {"slug": "edwardsville", "city": "edwardsville", "state": "", "addr": "", "lat": 38.78081, "lng": -89.94801}, {"slug": "effingham", "city": "effingham", "state": "", "addr": "", "lat": 39.12128, "lng": -88.5628}, {"slug": "elgin-il-mclean-blvd", "city": "elgin-il-mclean-blvd", "state": "", "addr": "", "lat": 42.06224, "lng": -88.31506}, {"slug": "elizabethtown-ky-dixie-ave", "city": "elizabethtown-ky-dixie-ave", "state": "", "addr": "", "lat": 32.22053, "lng": -110.83197}, {"slug": "elizabethtown-ky-n-mulberry-st", "city": "elizabethtown-ky-n-mulberry-st", "state": "", "addr": "", "lat": 37.71435, "lng": -85.83118}, {"slug": "elk-river", "city": "elk-river", "state": "", "addr": "", "lat": 45.32536, "lng": -93.56018}, {"slug": "elkhart", "city": "elkhart", "state": "", "addr": "", "lat": 41.7275, "lng": -85.9726}, {"slug": "elkhorn", "city": "elkhorn", "state": "", "addr": "", "lat": 42.69321, "lng": -88.5424}, {"slug": "elkin-nc-cc-camp-rd", "city": "elkin-nc-cc-camp-rd", "state": "", "addr": "", "lat": 36.27779, "lng": -80.83612}, {"slug": "ellisville-mo-mancheter-rd", "city": "ellisville-mo-mancheter-rd", "state": "", "addr": "", "lat": 38.5914, "lng": -90.59069}, {"slug": "elm-grove-wi", "city": "elm-grove-wi", "state": "", "addr": "", "lat": 43.03653, "lng": -88.10372}, {"slug": "elmhurst-il-n-york-st", "city": "elmhurst-il-n-york-st", "state": "", "addr": "", "lat": 41.91133, "lng": -87.94025}, {"slug": "elmwood-park-il-w-grand-ave", "city": "elmwood-park-il-w-grand-ave", "state": "", "addr": "", "lat": 41.92584, "lng": -87.8157}, {"slug": "escanaba", "city": "escanaba", "state": "", "addr": "", "lat": 45.75266, "lng": -87.07809}, {"slug": "estero-fl", "city": "estero-fl", "state": "", "addr": "", "lat": 38.50668, "lng": -90.63376}, {"slug": "estero-fl-murano-del-lago-dr", "city": "estero-fl-murano-del-lago-dr", "state": "", "addr": "", "lat": 26.39223, "lng": -81.80925}, {"slug": "eureka", "city": "eureka", "state": "", "addr": "", "lat": 38.50668, "lng": -90.63376}, {"slug": "evansville", "city": "evansville", "state": "", "addr": "", "lat": 37.99273, "lng": -87.47326}, {"slug": "evansville-in-w-lloyd-expy", "city": "evansville-in-w-lloyd-expy", "state": "", "addr": "", "lat": 37.97624, "lng": -87.63425}, {"slug": "evansville-wi-n-union-rd", "city": "evansville-wi-n-union-rd", "state": "", "addr": "", "lat": 42.78148, "lng": -89.29395}, {"slug": "evergreen-park-il", "city": "evergreen-park-il", "state": "", "addr": "", "lat": 30.29078, "lng": -87.6216}, {"slug": "fairhope-al-state-hwy-181", "city": "fairhope-al-state-hwy-181", "state": "", "addr": "", "lat": 38.93792, "lng": -104.6115}, {"slug": "falcon", "city": "falcon", "state": "", "addr": "", "lat": 38.93792, "lng": -104.6115}, {"slug": "fargo-13th", "city": "fargo-13th", "state": "", "addr": "", "lat": 46.86224, "lng": -96.86389}, {"slug": "fargo-25th", "city": "fargo-25th", "state": "", "addr": "", "lat": 41.45988, "lng": -91.01881}, {"slug": "faribault-mn-lyndale-ave", "city": "faribault-mn-lyndale-ave", "state": "", "addr": "", "lat": 44.30903, "lng": -93.29018}, {"slug": "farmington", "city": "farmington", "state": "", "addr": "", "lat": 37.78914, "lng": -90.4281}, {"slug": "fenton-mi", "city": "fenton-mi", "state": "", "addr": "", "lat": 33.39011, "lng": -84.7619}, {"slug": "fenton-mo", "city": "fenton-mo", "state": "", "addr": "", "lat": 38.5245, "lng": -90.47182}, {"slug": "fishers-in", "city": "fishers-in", "state": "", "addr": "", "lat": 39.9875, "lng": -85.91842}, {"slug": "flagstaff-az-route-66", "city": "flagstaff-az-route-66", "state": "", "addr": "", "lat": 35.19604, "lng": -111.62708}, {"slug": "flint-mi-miller-rd", "city": "flint-mi-miller-rd", "state": "", "addr": "", "lat": 42.98349, "lng": -83.75393}, {"slug": "florence", "city": "florence", "state": "", "addr": "", "lat": 38.9734, "lng": -84.66278}, {"slug": "florence-al-cloverdale-rd", "city": "florence-al-cloverdale-rd", "state": "", "addr": "", "lat": 38.7997, "lng": -90.3285}, {"slug": "florissant-mo", "city": "florissant-mo", "state": "", "addr": "", "lat": 38.7997, "lng": -90.3285}, {"slug": "flower-mound", "city": "flower-mound", "state": "", "addr": "", "lat": 33.01329, "lng": -97.07262}, {"slug": "foley-al-s-mckenzie-st", "city": "foley-al-s-mckenzie-st", "state": "", "addr": "", "lat": 30.36568, "lng": -87.68259}, {"slug": "fond-du-lac", "city": "fond-du-lac", "state": "", "addr": "", "lat": 43.75425, "lng": -88.45227}, {"slug": "fond-du-lac-hwy-23", "city": "fond-du-lac-hwy-23", "state": "", "addr": "", "lat": 45.27979, "lng": -92.99664}, {"slug": "fond-du-lac-johnson", "city": "fond-du-lac-johnson", "state": "", "addr": "", "lat": 30.21385, "lng": -97.8293}, {"slug": "forest-lake", "city": "forest-lake", "state": "", "addr": "", "lat": 45.27979, "lng": -92.99664}, {"slug": "fort-atkinson", "city": "fort-atkinson", "state": "", "addr": "", "lat": 42.9407, "lng": -88.86107}, {"slug": "fort-collins", "city": "fort-collins", "state": "", "addr": "", "lat": 40.57533, "lng": -105.0573}, {"slug": "fort-dodge", "city": "fort-dodge", "state": "", "addr": "", "lat": 27.75295, "lng": -81.80113}, {"slug": "fort-meade-fl-charleston-ave", "city": "fort-meade-fl-charleston-ave", "state": "", "addr": "", "lat": 27.75295, "lng": -81.80113}, {"slug": "fort-mill-sc", "city": "fort-mill-sc", "state": "", "addr": "", "lat": 35.09344, "lng": -80.93611}, {"slug": "fort-myers-fl-cleveland", "city": "fort-myers-fl-cleveland", "state": "", "addr": "", "lat": 26.55834, "lng": -81.87113}, {"slug": "fort-myers-fl-palm-beach-blvd", "city": "fort-myers-fl-palm-beach-blvd", "state": "", "addr": "", "lat": 26.69977, "lng": -81.75976}, {"slug": "fort-myers-fl-sixmilecypresspkwy", "city": "fort-myers-fl-sixmilecypresspkwy", "state": "", "addr": "", "lat": 26.60736, "lng": -81.8119}, {"slug": "fort-walton-beach-fl", "city": "fort-walton-beach-fl", "state": "", "addr": "", "lat": 30.4564, "lng": -86.639}, {"slug": "fort-wayne-in-southtown-crossing", "city": "fort-wayne-in-southtown-crossing", "state": "", "addr": "", "lat": 41.01641, "lng": -85.1189}, {"slug": "fort-wayne-in-washington-center", "city": "fort-wayne-in-washington-center", "state": "", "addr": "", "lat": 41.13198, "lng": -85.15825}, {"slug": "fountain-co", "city": "fountain-co", "state": "", "addr": "", "lat": 42.79035, "lng": -83.7339}, {"slug": "fox-lake-il-hwy-12", "city": "fox-lake-il-hwy-12", "state": "", "addr": "", "lat": 42.79035, "lng": -83.7339}, {"slug": "fox-river-grove-il-northwest-hwy", "city": "fox-river-grove-il-northwest-hwy", "state": "", "addr": "", "lat": 41.51717, "lng": -87.85055}, {"slug": "frankfort", "city": "frankfort", "state": "", "addr": "", "lat": 41.51717, "lng": -87.85055}, {"slug": "frankfort-e-wabash-st", "city": "frankfort-e-wabash-st", "state": "", "addr": "", "lat": 40.27846, "lng": -86.48401}, {"slug": "franklin", "city": "franklin", "state": "", "addr": "", "lat": 41.9287, "lng": -87.86443}, {"slug": "franklin-in-granville-dr", "city": "franklin-in-granville-dr", "state": "", "addr": "", "lat": 39.4837, "lng": -86.016}, {"slug": "franklin-park", "city": "franklin-park", "state": "", "addr": "", "lat": 41.9287, "lng": -87.86443}, {"slug": "franklin-tn", "city": "franklin-tn", "state": "", "addr": "", "lat": 35.94028, "lng": -86.82087}, {"slug": "freeport", "city": "freeport", "state": "", "addr": "", "lat": 42.28067, "lng": -89.63441}, {"slug": "ft-myers-university-plaza", "city": "ft-myers-university-plaza", "state": "", "addr": "", "lat": 26.4915, "lng": -81.78423}, {"slug": "ft-wayne-in-stellhorn", "city": "ft-wayne-in-stellhorn", "state": "", "addr": "", "lat": 41.11997, "lng": -85.06436}, {"slug": "fulshear-tx-flewellen-way", "city": "fulshear-tx-flewellen-way", "state": "", "addr": "", "lat": 29.6951, "lng": -95.849}, {"slug": "fuquay-varina-nc", "city": "fuquay-varina-nc", "state": "", "addr": "", "lat": 42.43622, "lng": -90.45033}, {"slug": "gainesville-fl-sw-35th-blvd", "city": "gainesville-fl-sw-35th-blvd", "state": "", "addr": "", "lat": 29.62573, "lng": -82.38436}, {"slug": "gainesville-ga-dawsonville-hwy", "city": "gainesville-ga-dawsonville-hwy", "state": "", "addr": "", "lat": 34.30466, "lng": -83.85971}, {"slug": "galena", "city": "galena", "state": "", "addr": "", "lat": 42.43622, "lng": -90.45033}, {"slug": "galesburg-il-n-henderson-st", "city": "galesburg-il-n-henderson-st", "state": "", "addr": "", "lat": 40.9639, "lng": -90.3838}, {"slug": "gardner-ks-gardner-rd", "city": "gardner-ks-gardner-rd", "state": "", "addr": "", "lat": 45.02713, "lng": -84.70152}, {"slug": "gaylord", "city": "gaylord", "state": "", "addr": "", "lat": 45.02713, "lng": -84.70152}, {"slug": "geneseo", "city": "geneseo", "state": "", "addr": "", "lat": 33.2848, "lng": -111.7559}, {"slug": "georgetown-ky-cherry-blossom", "city": "georgetown-ky-cherry-blossom", "state": "", "addr": "", "lat": 38.22139, "lng": -84.53967}, {"slug": "georgetown-tx-williams-dr", "city": "georgetown-tx-williams-dr", "state": "", "addr": "", "lat": 30.68962, "lng": -97.72444}, {"slug": "gilbert-az-val-vista", "city": "gilbert-az-val-vista", "state": "", "addr": "", "lat": 33.2848, "lng": -111.7559}, {"slug": "glendale-az", "city": "glendale-az", "state": "", "addr": "", "lat": 33.50947, "lng": -112.27185}, {"slug": "glendale-wi-bayside-dr", "city": "glendale-wi-bayside-dr", "state": "", "addr": "", "lat": 43.1245, "lng": -87.9129}, {"slug": "glenview-il-waukegan-rd", "city": "glenview-il-waukegan-rd", "state": "", "addr": "", "lat": 42.08666, "lng": -87.7977}, {"slug": "glenwood-springs-co-hwy-6", "city": "glenwood-springs-co-hwy-6", "state": "", "addr": "", "lat": 39.56181, "lng": -107.35839}, {"slug": "golden-valley-mn-7th-ave", "city": "golden-valley-mn-7th-ave", "state": "", "addr": "", "lat": 44.98545, "lng": -93.39223}, {"slug": "goodyear-az-estrella-pkwy", "city": "goodyear-az-estrella-pkwy", "state": "", "addr": "", "lat": 33.4476, "lng": -112.3934}, {"slug": "goshen-in", "city": "goshen-in", "state": "", "addr": "", "lat": 41.55993, "lng": -85.79581}, {"slug": "goshen-in-elkhart-rd", "city": "goshen-in-elkhart-rd", "state": "", "addr": "", "lat": 41.59875, "lng": -85.86349}, {"slug": "grafton", "city": "grafton", "state": "", "addr": "", "lat": 43.30497, "lng": -87.96101}, {"slug": "grain-valley-mo-nw-buckner-tarsney-rd", "city": "grain-valley-mo-nw-buckner-tarsney-rd", "state": "", "addr": "", "lat": 39.02511, "lng": -94.19823}, {"slug": "grand-blanc-mi", "city": "grand-blanc-mi", "state": "", "addr": "", "lat": 42.89921, "lng": -83.63173}, {"slug": "grand-chute-wi-evergreen-dr", "city": "grand-chute-wi-evergreen-dr", "state": "", "addr": "", "lat": 44.3023, "lng": -88.4182}, {"slug": "grand-forks", "city": "grand-forks", "state": "", "addr": "", "lat": 47.88871, "lng": -97.07832}, {"slug": "grand-haven", "city": "grand-haven", "state": "", "addr": "", "lat": 39.08889, "lng": -108.59831}, {"slug": "grand-island-ne-hwy-281", "city": "grand-island-ne-hwy-281", "state": "", "addr": "", "lat": 40.9418, "lng": -98.3843}, {"slug": "grand-junction-co-24-12-road", "city": "grand-junction-co-24-12-road", "state": "", "addr": "", "lat": 39.08889, "lng": -108.59831}, {"slug": "grand-rapids-mn-pokegama-ave", "city": "grand-rapids-mn-pokegama-ave", "state": "", "addr": "", "lat": 47.21903, "lng": -93.52935}, {"slug": "granger-in-state-rd", "city": "granger-in-state-rd", "state": "", "addr": "", "lat": 41.7524, "lng": -86.1229}, {"slug": "gratiot-mi-24th-ave", "city": "gratiot-mi-24th-ave", "state": "", "addr": "", "lat": 43.0336, "lng": -82.4558}, {"slug": "grayslake", "city": "grayslake", "state": "", "addr": "", "lat": 32.2943, "lng": -110.96052}, {"slug": "greeley", "city": "greeley", "state": "", "addr": "", "lat": 40.38744, "lng": -104.73572}, {"slug": "green-bay-hansen", "city": "green-bay-hansen", "state": "", "addr": "", "lat": 44.4761, "lng": -88.07613}, {"slug": "green-bay-mason", "city": "green-bay-mason", "state": "", "addr": "", "lat": 44.518, "lng": -88.04912}, {"slug": "green-bay-voyager", "city": "green-bay-voyager", "state": "", "addr": "", "lat": 44.48664, "lng": -87.93568}, {"slug": "greenfield-in", "city": "greenfield-in", "state": "", "addr": "", "lat": 39.81162, "lng": -85.77042}, {"slug": "greenfield-wi-layton-ave", "city": "greenfield-wi-layton-ave", "state": "", "addr": "", "lat": 42.95898, "lng": -87.98997}, {"slug": "greensburg-in-n-broadway-st", "city": "greensburg-in-n-broadway-st", "state": "", "addr": "", "lat": 39.35424, "lng": -85.48566}, {"slug": "greenville-mi-washington", "city": "greenville-mi-washington", "state": "", "addr": "", "lat": 43.17662, "lng": -85.28345}, {"slug": "greenville-sc-laurens-rd", "city": "greenville-sc-laurens-rd", "state": "", "addr": "", "lat": 43.40856, "lng": -86.32052}, {"slug": "greenville-sc-pleasantburg-dr", "city": "greenville-sc-pleasantburg-dr", "state": "", "addr": "", "lat": 37.74939, "lng": -97.24424}, {"slug": "greenville-south-carolina", "city": "greenville-south-carolina", "state": "", "addr": "", "lat": 34.82052, "lng": -82.26042}, {"slug": "greenwood", "city": "greenwood", "state": "", "addr": "", "lat": 43.0336, "lng": -82.4558}, {"slug": "greenwood-in-emerson-ave", "city": "greenwood-in-emerson-ave", "state": "", "addr": "", "lat": 39.63323, "lng": -86.08339}, {"slug": "greer-sc-wade-hampton-blvd", "city": "greer-sc-wade-hampton-blvd", "state": "", "addr": "", "lat": 34.94449, "lng": -82.25341}, {"slug": "gretna-ne-191-st", "city": "gretna-ne-191-st", "state": "", "addr": "", "lat": 41.14945, "lng": -96.21505}, {"slug": "grimes-ia-1st-st", "city": "grimes-ia-1st-st", "state": "", "addr": "", "lat": 41.68916, "lng": -93.77726}, {"slug": "grovetown-ga-gateway-blvd", "city": "grovetown-ga-gateway-blvd", "state": "", "addr": "", "lat": 33.47953, "lng": -82.19655}, {"slug": "gurnee", "city": "gurnee", "state": "", "addr": "", "lat": 42.3811, "lng": -87.94093}, {"slug": "haines-city-fl-hwy-27", "city": "haines-city-fl-hwy-27", "state": "", "addr": "", "lat": 28.1391, "lng": -81.63687}, {"slug": "hales-corners", "city": "hales-corners", "state": "", "addr": "", "lat": 42.9342, "lng": -88.04947}, {"slug": "hamilton", "city": "hamilton", "state": "", "addr": "", "lat": 41.56998, "lng": -87.4788}, {"slug": "hammond-in", "city": "hammond-in", "state": "", "addr": "", "lat": 41.56998, "lng": -87.4788}, {"slug": "hampton-cove-al-us-hwy-431", "city": "hampton-cove-al-us-hwy-431", "state": "", "addr": "", "lat": 34.664, "lng": -86.48673}, {"slug": "harrison-ar-hwy-43-n", "city": "harrison-ar-hwy-43-n", "state": "", "addr": "", "lat": 36.25621, "lng": -93.12223}, {"slug": "harrisonville-mo-rte-291", "city": "harrisonville-mo-rte-291", "state": "", "addr": "", "lat": 38.664, "lng": -94.3665}, {"slug": "hartford", "city": "hartford", "state": "", "addr": "", "lat": 42.78148, "lng": -89.29395}, {"slug": "hartland-mi-highland-rd", "city": "hartland-mi-highland-rd", "state": "", "addr": "", "lat": 43.09285, "lng": -88.36058}, {"slug": "hartland-wi", "city": "hartland-wi", "state": "", "addr": "", "lat": 43.09285, "lng": -88.36058}, {"slug": "harvard-il-division-st", "city": "harvard-il-division-st", "state": "", "addr": "", "lat": 42.40497, "lng": -88.61277}, {"slug": "harwood-heights-il-n-harlem-ave", "city": "harwood-heights-il-n-harlem-ave", "state": "", "addr": "", "lat": 43.63351, "lng": -116.35098}, {"slug": "hastings", "city": "hastings", "state": "", "addr": "", "lat": 44.73702, "lng": -92.89076}, {"slug": "hastings-mi-green-st", "city": "hastings-mi-green-st", "state": "", "addr": "", "lat": 42.64629, "lng": -85.31818}, {"slug": "hazel-green-al-us-231", "city": "hazel-green-al-us-231", "state": "", "addr": "", "lat": 34.93741, "lng": -86.5724}, {"slug": "heath-oh-s-30th-st", "city": "heath-oh-s-30th-st", "state": "", "addr": "", "lat": 40.03029, "lng": -82.44397}, {"slug": "hendersonville-tn", "city": "hendersonville-tn", "state": "", "addr": "", "lat": 36.32862, "lng": -86.59321}, {"slug": "hiawatha", "city": "hiawatha", "state": "", "addr": "", "lat": 42.04828, "lng": -91.68318}, {"slug": "hickory-nc-13th-avenue-se-dr", "city": "hickory-nc-13th-avenue-se-dr", "state": "", "addr": "", "lat": 35.7052, "lng": -81.29451}, {"slug": "high-point-nc-sedgebrook-st", "city": "high-point-nc-sedgebrook-st", "state": "", "addr": "", "lat": 36.06012, "lng": -79.96236}, {"slug": "highland-city-fl-clubhouse", "city": "highland-city-fl-clubhouse", "state": "", "addr": "", "lat": 41.55109, "lng": -87.43307}, {"slug": "highland-in", "city": "highland-in", "state": "", "addr": "", "lat": 41.55109, "lng": -87.43307}, {"slug": "hixson-tn-northgate-mall-dr", "city": "hixson-tn-northgate-mall-dr", "state": "", "addr": "", "lat": 35.12863, "lng": -85.24165}, {"slug": "hoffman-estates-il-hoffman-blvd", "city": "hoffman-estates-il-hoffman-blvd", "state": "", "addr": "", "lat": 42.06903, "lng": -88.19402}, {"slug": "holland", "city": "holland", "state": "", "addr": "", "lat": 42.82365, "lng": -86.09213}, {"slug": "holland-mi-e-16th-st", "city": "holland-mi-e-16th-st", "state": "", "addr": "", "lat": 42.78358, "lng": -86.08202}, {"slug": "holland-oh-center-rd", "city": "holland-oh-center-rd", "state": "", "addr": "", "lat": 41.61365, "lng": -83.6983}, {"slug": "homer-glen-il-143rd", "city": "homer-glen-il-143rd", "state": "", "addr": "", "lat": 41.6295, "lng": -87.9294}, {"slug": "homewood", "city": "homewood", "state": "", "addr": "", "lat": 41.55801, "lng": -87.63818}, {"slug": "hoover-al-john-hawkins-pkwy", "city": "hoover-al-john-hawkins-pkwy", "state": "", "addr": "", "lat": 33.35463, "lng": -86.84822}, {"slug": "hope-mills-s-peak-dr", "city": "hope-mills-s-peak-dr", "state": "", "addr": "", "lat": 34.97997, "lng": -78.97693}, {"slug": "houghton-mi", "city": "houghton-mi", "state": "", "addr": "", "lat": 47.1129, "lng": -88.58987}, {"slug": "howell-mi-grand-river-ave", "city": "howell-mi-grand-river-ave", "state": "", "addr": "", "lat": 42.58678, "lng": -83.87561}, {"slug": "hudson", "city": "hudson", "state": "", "addr": "", "lat": 44.96797, "lng": -92.72191}, {"slug": "hudsonville-mi-32nd-ave", "city": "hudsonville-mi-32nd-ave", "state": "", "addr": "", "lat": 42.8379, "lng": -85.8624}, {"slug": "humble-tx-woodland-hills-dr", "city": "humble-tx-woodland-hills-dr", "state": "", "addr": "", "lat": 29.9484, "lng": -95.21265}, {"slug": "huntington-in-guilford-st", "city": "huntington-in-guilford-st", "state": "", "addr": "", "lat": 40.90062, "lng": -85.50529}, {"slug": "huntley", "city": "huntley", "state": "", "addr": "", "lat": 42.14449, "lng": -88.43214}, {"slug": "huntsville-al-memorial-pkwy-sw", "city": "huntsville-al-memorial-pkwy-sw", "state": "", "addr": "", "lat": 34.6442, "lng": -86.5676}, {"slug": "huntsville-al-winchester-rd", "city": "huntsville-al-winchester-rd", "state": "", "addr": "", "lat": 34.81513, "lng": -86.5002}, {"slug": "hurricane-ut-w-state-st", "city": "hurricane-ut-w-state-st", "state": "", "addr": "", "lat": 37.17617, "lng": -113.29739}, {"slug": "hutchinson", "city": "hutchinson", "state": "", "addr": "", "lat": 44.86675, "lng": -94.37465}, {"slug": "idaho-falls-id-pancheri-dr", "city": "idaho-falls-id-pancheri-dr", "state": "", "addr": "", "lat": 43.48877, "lng": -112.05157}, {"slug": "independence-mo", "city": "independence-mo", "state": "", "addr": "", "lat": 39.03606, "lng": -94.34361}, {"slug": "indian-land-sc-charlotte-hwy", "city": "indian-land-sc-charlotte-hwy", "state": "", "addr": "", "lat": 34.9491, "lng": -80.84581}, {"slug": "indian-trail-nc-charlotte-hwy", "city": "indian-trail-nc-charlotte-hwy", "state": "", "addr": "", "lat": 39.92653, "lng": -86.04331}, {"slug": "indianapolis-71st", "city": "indianapolis-71st", "state": "", "addr": "", "lat": 35.04688, "lng": -80.64369}, {"slug": "indianapolis-96th", "city": "indianapolis-96th", "state": "", "addr": "", "lat": 39.92653, "lng": -86.04331}, {"slug": "indianapolis-in-21-st", "city": "indianapolis-in-21-st", "state": "", "addr": "", "lat": 39.79678, "lng": -86.04484}, {"slug": "indianapolis-in-emerson-ave", "city": "indianapolis-in-emerson-ave", "state": "", "addr": "", "lat": 39.69791, "lng": -86.08171}, {"slug": "indianapolis-in-keystone-ave", "city": "indianapolis-in-keystone-ave", "state": "", "addr": "", "lat": 39.86625, "lng": -86.1216}, {"slug": "indianapolis-in-rockville-rd", "city": "indianapolis-in-rockville-rd", "state": "", "addr": "", "lat": 39.76348, "lng": -86.30613}, {"slug": "indianapolis-in-s-east-st", "city": "indianapolis-in-s-east-st", "state": "", "addr": "", "lat": 39.7113, "lng": -86.14839}, {"slug": "indianapolis-kentucky", "city": "indianapolis-kentucky", "state": "", "addr": "", "lat": 39.69982, "lng": -86.26294}, {"slug": "inverness-fl-main-st", "city": "inverness-fl-main-st", "state": "", "addr": "", "lat": 28.8355, "lng": -82.3516}, {"slug": "ionia-mi-state-rd", "city": "ionia-mi-state-rd", "state": "", "addr": "", "lat": 42.9508, "lng": -85.0754}, {"slug": "iowa-city-ia", "city": "iowa-city-ia", "state": "", "addr": "", "lat": 41.64811, "lng": -91.54938}, {"slug": "iron-mountain-mi-stephenson-ave", "city": "iron-mountain-mi-stephenson-ave", "state": "", "addr": "", "lat": 45.81019, "lng": -88.03547}, {"slug": "island-lake", "city": "island-lake", "state": "", "addr": "", "lat": 42.27145, "lng": -88.19638}, {"slug": "jackson-mi", "city": "jackson-mi", "state": "", "addr": "", "lat": 42.26627, "lng": -84.45511}, {"slug": "jackson-wi", "city": "jackson-wi", "state": "", "addr": "", "lat": 43.32552, "lng": -88.18883}, {"slug": "jacksonville-fl-gate-pkwy", "city": "jacksonville-fl-gate-pkwy", "state": "", "addr": "", "lat": 30.49127, "lng": -81.62588}, {"slug": "jacksonville-fl-hodges-blvd", "city": "jacksonville-fl-hodges-blvd", "state": "", "addr": "", "lat": 30.25453, "lng": -81.4673}, {"slug": "jacksonville-fl-hyatt-rd", "city": "jacksonville-fl-hyatt-rd", "state": "", "addr": "", "lat": 30.49127, "lng": -81.62588}, {"slug": "jacksonville-fl-monument-rd", "city": "jacksonville-fl-monument-rd", "state": "", "addr": "", "lat": 30.32375, "lng": -81.54634}, {"slug": "jacksonville-fl-parramore-rd", "city": "jacksonville-fl-parramore-rd", "state": "", "addr": "", "lat": 30.2038, "lng": -81.7575}, {"slug": "janesville-court", "city": "janesville-court", "state": "", "addr": "", "lat": 42.6789, "lng": -89.0502}, {"slug": "janesville-milton", "city": "janesville-milton", "state": "", "addr": "", "lat": 42.71492, "lng": -89.001}, {"slug": "janesville-wi-midland-rd", "city": "janesville-wi-midland-rd", "state": "", "addr": "", "lat": 42.67242, "lng": -88.97785}, {"slug": "jasper-ga-noah-dr", "city": "jasper-ga-noah-dr", "state": "", "addr": "", "lat": 41.60352, "lng": -87.75153}, {"slug": "jasper-in-newton-st", "city": "jasper-in-newton-st", "state": "", "addr": "", "lat": 32.22053, "lng": -110.83197}, {"slug": "jefferson-city", "city": "jefferson-city", "state": "", "addr": "", "lat": 38.55258, "lng": -92.2001}, {"slug": "jefferson-ga-marketplace-wy", "city": "jefferson-ga-marketplace-wy", "state": "", "addr": "", "lat": 34.11294, "lng": -83.59959}, {"slug": "jeffersonville-in", "city": "jeffersonville-in", "state": "", "addr": "", "lat": 38.32957, "lng": -85.7451}, {"slug": "jeffersonville-in-e-10th-st", "city": "jeffersonville-in-e-10th-st", "state": "", "addr": "", "lat": 38.33393, "lng": -85.70985}, {"slug": "jenison", "city": "jenison", "state": "", "addr": "", "lat": 42.90328, "lng": -85.79338}, {"slug": "jensen-beach-fl-nw-federal-hwy", "city": "jensen-beach-fl-nw-federal-hwy", "state": "", "addr": "", "lat": 34.08687, "lng": -84.16324}, {"slug": "johns-creek-ga-peachtree", "city": "johns-creek-ga-peachtree", "state": "", "addr": "", "lat": 34.08687, "lng": -84.16324}, {"slug": "johnson-creek", "city": "johnson-creek", "state": "", "addr": "", "lat": 43.08326, "lng": -88.76392}, {"slug": "johnstown", "city": "johnstown", "state": "", "addr": "", "lat": 40.40659, "lng": -104.98078}, {"slug": "joliet", "city": "joliet", "state": "", "addr": "", "lat": 41.54879, "lng": -88.19895}, {"slug": "joliet-il-larkin-ave", "city": "joliet-il-larkin-ave", "state": "", "addr": "", "lat": 41.5179, "lng": -88.12517}, {"slug": "jupiter-fl-military-trl", "city": "jupiter-fl-military-trl", "state": "", "addr": "", "lat": 26.9204, "lng": -80.10274}, {"slug": "kalamazoo", "city": "kalamazoo", "state": "", "addr": "", "lat": 42.2433, "lng": -85.67693}, {"slug": "kalamazoo-gull", "city": "kalamazoo-gull", "state": "", "addr": "", "lat": 42.32943, "lng": -85.51064}, {"slug": "kannapolis-nc-dale-earnhardt-blvd", "city": "kannapolis-nc-dale-earnhardt-blvd", "state": "", "addr": "", "lat": 35.46911, "lng": -80.59016}, {"slug": "kansas-city-ks", "city": "kansas-city-ks", "state": "", "addr": "", "lat": 39.12805, "lng": -94.8206}, {"slug": "kansas-city-mo", "city": "kansas-city-mo", "state": "", "addr": "", "lat": 38.9836, "lng": -94.60786}, {"slug": "kansas-city-mo-barry-rd", "city": "kansas-city-mo-barry-rd", "state": "", "addr": "", "lat": 39.24741, "lng": -94.66309}, {"slug": "kansas-city-mo-nw-64th-st", "city": "kansas-city-mo-nw-64th-st", "state": "", "addr": "", "lat": 39.21002, "lng": -94.64891}, {"slug": "kansas-mo-n-oak-trafficway", "city": "kansas-mo-n-oak-trafficway", "state": "", "addr": "", "lat": 39.27091, "lng": -94.57593}, {"slug": "katy-tx-peek-rd", "city": "katy-tx-peek-rd", "state": "", "addr": "", "lat": 29.81992, "lng": -95.77106}, {"slug": "kearney", "city": "kearney", "state": "", "addr": "", "lat": 40.72395, "lng": -99.08449}, {"slug": "kennesaw-ga-due-west-road", "city": "kennesaw-ga-due-west-road", "state": "", "addr": "", "lat": 34.01414, "lng": -84.61511}, {"slug": "kenosha", "city": "kenosha", "state": "", "addr": "", "lat": 28.49462, "lng": -81.42198}, {"slug": "kenosha-sheridan", "city": "kenosha-sheridan", "state": "", "addr": "", "lat": 42.55633, "lng": -87.82581}, {"slug": "kernersville-nc-pecan", "city": "kernersville-nc-pecan", "state": "", "addr": "", "lat": 36.0782, "lng": -80.1089}, {"slug": "kerrville", "city": "kerrville", "state": "", "addr": "", "lat": 30.06244, "lng": -99.17007}, {"slug": "kingman-az-airway-ave", "city": "kingman-az-airway-ave", "state": "", "addr": "", "lat": 35.22539, "lng": -114.03491}, {"slug": "kingwood-tx", "city": "kingwood-tx", "state": "", "addr": "", "lat": 30.06955, "lng": -95.24242}, {"slug": "kissimmee-fl-irlo-bronson-memorial-hwy", "city": "kissimmee-fl-irlo-bronson-memorial-hwy", "state": "", "addr": "", "lat": 28.3462, "lng": -81.65089}, {"slug": "kissimmee-fl-orange-blossom", "city": "kissimmee-fl-orange-blossom", "state": "", "addr": "", "lat": 28.34124, "lng": -81.4043}, {"slug": "knoxville-tn-kingston-pike", "city": "knoxville-tn-kingston-pike", "state": "", "addr": "", "lat": 35.91253, "lng": -84.08508}, {"slug": "kokomo", "city": "kokomo", "state": "", "addr": "", "lat": 40.43539, "lng": -86.128}, {"slug": "la-crosse", "city": "la-crosse", "state": "", "addr": "", "lat": 43.77352, "lng": -91.2192}, {"slug": "la-porte-in-pine-lake-ave", "city": "la-porte-in-pine-lake-ave", "state": "", "addr": "", "lat": 41.36611, "lng": -85.07984}, {"slug": "labelle-fl-lashley-st", "city": "labelle-fl-lashley-st", "state": "", "addr": "", "lat": 43.1342, "lng": -88.2429}, {"slug": "ladson-sc-ladson", "city": "ladson-sc-ladson", "state": "", "addr": "", "lat": 32.97559, "lng": -80.13658}, {"slug": "lafayette", "city": "lafayette", "state": "", "addr": "", "lat": 30.17986, "lng": -82.66437}, {"slug": "lake-city-fl-nw-commons-loop", "city": "lake-city-fl-nw-commons-loop", "state": "", "addr": "", "lat": 43.1342, "lng": -88.2429}, {"slug": "lake-delton", "city": "lake-delton", "state": "", "addr": "", "lat": 43.57706, "lng": -89.77939}, {"slug": "lake-geneva", "city": "lake-geneva", "state": "", "addr": "", "lat": 42.59034, "lng": -88.42876}, {"slug": "lake-havasu-city-az-countryshire-ave", "city": "lake-havasu-city-az-countryshire-ave", "state": "", "addr": "", "lat": 34.49141, "lng": -114.34998}, {"slug": "lake-in-the-hills", "city": "lake-in-the-hills", "state": "", "addr": "", "lat": 42.70955, "lng": -83.24165}, {"slug": "lake-mills-wi-tyranena-rd", "city": "lake-mills-wi-tyranena-rd", "state": "", "addr": "", "lat": 43.08986, "lng": -88.91101}, {"slug": "lake-orion", "city": "lake-orion", "state": "", "addr": "", "lat": 42.70955, "lng": -83.24165}, {"slug": "lake-park-fl-congress-ave", "city": "lake-park-fl-congress-ave", "state": "", "addr": "", "lat": 26.79925, "lng": -80.0844}, {"slug": "lake-zurich", "city": "lake-zurich", "state": "", "addr": "", "lat": 42.20736, "lng": -88.11245}, {"slug": "lakeland-fl-s-florida-ave", "city": "lakeland-fl-s-florida-ave", "state": "", "addr": "", "lat": 27.9486, "lng": -81.9691}, {"slug": "lakeland-fl-us-98", "city": "lakeland-fl-us-98", "state": "", "addr": "", "lat": 28.1107, "lng": -81.9742}, {"slug": "lakeville", "city": "lakeville", "state": "", "addr": "", "lat": 44.69072, "lng": -93.28107}, {"slug": "lakewood-co-webster", "city": "lakewood-co-webster", "state": "", "addr": "", "lat": 39.73891, "lng": -82.6319}, {"slug": "lancaster-oh-salvation-wy", "city": "lancaster-oh-salvation-wy", "state": "", "addr": "", "lat": 28.27071, "lng": -82.47969}, {"slug": "land-o-lakes-fl-blvd", "city": "land-o-lakes-fl-blvd", "state": "", "addr": "", "lat": 28.27071, "lng": -82.47969}, {"slug": "lansing-il", "city": "lansing-il", "state": "", "addr": "", "lat": 41.58617, "lng": -87.55997}, {"slug": "lansing-mi-pennsylvania-ave", "city": "lansing-mi-pennsylvania-ave", "state": "", "addr": "", "lat": 42.66663, "lng": -84.53867}, {"slug": "lansing-mi-towne-centre-blvd", "city": "lansing-mi-towne-centre-blvd", "state": "", "addr": "", "lat": 28.49462, "lng": -81.42198}, {"slug": "lansing-saginaw", "city": "lansing-saginaw", "state": "", "addr": "", "lat": 42.74166, "lng": -84.67769}, {"slug": "lapeer-mi-west-st", "city": "lapeer-mi-west-st", "state": "", "addr": "", "lat": 43.0401, "lng": -83.3227}, {"slug": "largo-fl", "city": "largo-fl", "state": "", "addr": "", "lat": 27.91699, "lng": -82.75063}, {"slug": "lavista", "city": "lavista", "state": "", "addr": "", "lat": 41.17666, "lng": -96.06652}, {"slug": "lawrence-in", "city": "lawrence-in", "state": "", "addr": "", "lat": 39.85422, "lng": -86.00956}, {"slug": "lawrence-ks", "city": "lawrence-ks", "state": "", "addr": "", "lat": 38.92398, "lng": -95.26125}, {"slug": "lawrenceville-ga-scenic-hwy-sw", "city": "lawrenceville-ga-scenic-hwy-sw", "state": "", "addr": "", "lat": 38.92398, "lng": -95.26125}, {"slug": "layton-ut-gentile-st", "city": "layton-ut-gentile-st", "state": "", "addr": "", "lat": 41.05956, "lng": -111.95982}, {"slug": "leander-tx-crystal-village-blvd", "city": "leander-tx-crystal-village-blvd", "state": "", "addr": "", "lat": 30.56409, "lng": -97.8222}, {"slug": "leavenworth-ks-eisenhower-rd", "city": "leavenworth-ks-eisenhower-rd", "state": "", "addr": "", "lat": 39.26744, "lng": -94.91461}, {"slug": "lebanon-indiana-lebanon-st", "city": "lebanon-indiana-lebanon-st", "state": "", "addr": "", "lat": 40.07201, "lng": -86.47466}, {"slug": "lecanto-fl-lecanto-hwy", "city": "lecanto-fl-lecanto-hwy", "state": "", "addr": "", "lat": 28.8885, "lng": -82.487}, {"slug": "leclaire-ia-mississippi-view-ct", "city": "leclaire-ia-mississippi-view-ct", "state": "", "addr": "", "lat": 41.5875, "lng": -90.3617}, {"slug": "lees-summit", "city": "lees-summit", "state": "", "addr": "", "lat": 38.94222, "lng": -94.37748}, {"slug": "lees-summit-mo-oldham-pkwy", "city": "lees-summit-mo-oldham-pkwy", "state": "", "addr": "", "lat": 38.90082, "lng": -94.34245}, {"slug": "leesburg-fl-hwy-441", "city": "leesburg-fl-hwy-441", "state": "", "addr": "", "lat": 28.82817, "lng": -81.80136}, {"slug": "lehi", "city": "lehi", "state": "", "addr": "", "lat": 40.38808, "lng": -111.82846}, {"slug": "lehigh-acres-fl-lee-blvd", "city": "lehigh-acres-fl-lee-blvd", "state": "", "addr": "", "lat": 26.61433, "lng": -81.66426}, {"slug": "lexington-hamburg-place", "city": "lexington-hamburg-place", "state": "", "addr": "", "lat": 38.02066, "lng": -84.42161}, {"slug": "lexington-meijer-way", "city": "lexington-meijer-way", "state": "", "addr": "", "lat": 37.99436, "lng": -84.53152}, {"slug": "liberty", "city": "liberty", "state": "", "addr": "", "lat": 39.24395, "lng": -94.45022}, {"slug": "libertyville", "city": "libertyville", "state": "", "addr": "", "lat": 42.28144, "lng": -87.93952}, {"slug": "lincoln-27th", "city": "lincoln-27th", "state": "", "addr": "", "lat": 40.86035, "lng": -96.68106}, {"slug": "lincoln-il", "city": "lincoln-il", "state": "", "addr": "", "lat": 40.15852, "lng": -89.40257}, {"slug": "lincoln-old-cheney", "city": "lincoln-old-cheney", "state": "", "addr": "", "lat": 40.75602, "lng": -96.70029}, {"slug": "lincoln-pioneer", "city": "lincoln-pioneer", "state": "", "addr": "", "lat": 40.77185, "lng": -96.62467}, {"slug": "lincolnshire-il-milwaukee-ave", "city": "lincolnshire-il-milwaukee-ave", "state": "", "addr": "", "lat": 42.20002, "lng": -87.93222}, {"slug": "lino-lakes-mn-otter-lake-rd", "city": "lino-lakes-mn-otter-lake-rd", "state": "", "addr": "", "lat": 45.1647, "lng": -93.02775}, {"slug": "little-canada", "city": "little-canada", "state": "", "addr": "", "lat": 39.58216, "lng": -104.98797}, {"slug": "little-chute-wi", "city": "little-chute-wi", "state": "", "addr": "", "lat": 44.29532, "lng": -88.3136}, {"slug": "littleton-co-s-broadway", "city": "littleton-co-s-broadway", "state": "", "addr": "", "lat": 39.58216, "lng": -104.98797}, {"slug": "livonia-mi", "city": "livonia-mi", "state": "", "addr": "", "lat": 42.38002, "lng": -83.33111}, {"slug": "lockport-il", "city": "lockport-il", "state": "", "addr": "", "lat": 41.59661, "lng": -88.02711}, {"slug": "logan-ut-200-e", "city": "logan-ut-200-e", "state": "", "addr": "", "lat": 41.757, "lng": -111.82859}, {"slug": "logansport-in-market-st", "city": "logansport-in-market-st", "state": "", "addr": "", "lat": 40.75669, "lng": -86.31305}, {"slug": "lombard", "city": "lombard", "state": "", "addr": "", "lat": 26.9204, "lng": -80.10274}, {"slug": "longmont-co-hover-rd", "city": "longmont-co-hover-rd", "state": "", "addr": "", "lat": 40.14855, "lng": -105.13}, {"slug": "louisville-hurstbourne", "city": "louisville-hurstbourne", "state": "", "addr": "", "lat": 38.09576, "lng": -85.6721}, {"slug": "louisville-interchange", "city": "louisville-interchange", "state": "", "addr": "", "lat": 38.09576, "lng": -85.6721}, {"slug": "loveland-co-eisenhower-blvd", "city": "loveland-co-eisenhower-blvd", "state": "", "addr": "", "lat": 40.40682, "lng": -105.10046}, {"slug": "lowell-mi-w-main-st", "city": "lowell-mi-w-main-st", "state": "", "addr": "", "lat": 42.93202, "lng": -85.35318}, {"slug": "loxahatchee-groves-southern-blvd", "city": "loxahatchee-groves-southern-blvd", "state": "", "addr": "", "lat": 26.6838, "lng": -80.2881}, {"slug": "ludington-mi-us-10", "city": "ludington-mi-us-10", "state": "", "addr": "", "lat": 43.95526, "lng": -86.40653}, {"slug": "lutz-fl-walmart-way", "city": "lutz-fl-walmart-way", "state": "", "addr": "", "lat": 28.1764, "lng": -82.4644}, {"slug": "lyons", "city": "lyons", "state": "", "addr": "", "lat": 32.89631, "lng": -83.69097}, {"slug": "macedonia-oh-e-aurora-rd", "city": "macedonia-oh-e-aurora-rd", "state": "", "addr": "", "lat": 41.31178, "lng": -81.52271}, {"slug": "macon-ga-northside-dr", "city": "macon-ga-northside-dr", "state": "", "addr": "", "lat": 32.89631, "lng": -83.69097}, {"slug": "madison-al-wall-triana-hwy", "city": "madison-al-wall-triana-hwy", "state": "", "addr": "", "lat": 34.70715, "lng": -86.7504}, {"slug": "madison-cottage-grove", "city": "madison-cottage-grove", "state": "", "addr": "", "lat": 43.12534, "lng": -89.30843}, {"slug": "madison-east-towne", "city": "madison-east-towne", "state": "", "addr": "", "lat": 43.12534, "lng": -89.30843}, {"slug": "madison-heights", "city": "madison-heights", "state": "", "addr": "", "lat": 42.50499, "lng": -83.11331}, {"slug": "madison-in-franks-dr", "city": "madison-in-franks-dr", "state": "", "addr": "", "lat": 43.74773, "lng": -87.95317}, {"slug": "madison-northport", "city": "madison-northport", "state": "", "addr": "", "lat": 43.13412, "lng": -89.37288}, {"slug": "madison-todd-drive", "city": "madison-todd-drive", "state": "", "addr": "", "lat": 43.03608, "lng": -89.41502}, {"slug": "madison-us-hwy-72-w", "city": "madison-us-hwy-72-w", "state": "", "addr": "", "lat": 34.75009, "lng": -86.76489}, {"slug": "madison-wi-mineral-point-rd", "city": "madison-wi-mineral-point-rd", "state": "", "addr": "", "lat": 43.06105, "lng": -89.50676}, {"slug": "mahomet-il-patton-dr", "city": "mahomet-il-patton-dr", "state": "", "addr": "", "lat": 40.18421, "lng": -88.36649}, {"slug": "manchester-mo-manchester-rd", "city": "manchester-mo-manchester-rd", "state": "", "addr": "", "lat": 38.59295, "lng": -90.51934}, {"slug": "mandan-nd-east-main-st", "city": "mandan-nd-east-main-st", "state": "", "addr": "", "lat": 39.19011, "lng": -96.54885}, {"slug": "manhattan-ks-mccall-rd", "city": "manhattan-ks-mccall-rd", "state": "", "addr": "", "lat": 39.19011, "lng": -96.54885}, {"slug": "manistee-twp-mi-parkdale-ave", "city": "manistee-twp-mi-parkdale-ave", "state": "", "addr": "", "lat": 44.2699, "lng": -86.2924}, {"slug": "manitowoc", "city": "manitowoc", "state": "", "addr": "", "lat": 44.07462, "lng": -87.70016}, {"slug": "mankato", "city": "mankato", "state": "", "addr": "", "lat": 44.16731, "lng": -93.9533}, {"slug": "maple-grove", "city": "maple-grove", "state": "", "addr": "", "lat": 45.12951, "lng": -93.48856}, {"slug": "maple-grove-mn-70th-way-n", "city": "maple-grove-mn-70th-way-n", "state": "", "addr": "", "lat": 45.08452, "lng": -93.51624}, {"slug": "margate-fl-copans-rd", "city": "margate-fl-copans-rd", "state": "", "addr": "", "lat": 45.08452, "lng": -93.51624}, {"slug": "maricopa-az-john-wayne-pkwy", "city": "maricopa-az-john-wayne-pkwy", "state": "", "addr": "", "lat": 33.0649, "lng": -112.04855}, {"slug": "marinette", "city": "marinette", "state": "", "addr": "", "lat": 45.09365, "lng": -87.64691}, {"slug": "marion", "city": "marion", "state": "", "addr": "", "lat": 42.03856, "lng": -91.55118}, {"slug": "marion-il-blue-heron-dr", "city": "marion-il-blue-heron-dr", "state": "", "addr": "", "lat": 37.74511, "lng": -88.96113}, {"slug": "marion-oh-marion-mt-gilead-rd", "city": "marion-oh-marion-mt-gilead-rd", "state": "", "addr": "", "lat": 40.58103, "lng": -83.0715}, {"slug": "marquette", "city": "marquette", "state": "", "addr": "", "lat": 46.54881, "lng": -87.454}, {"slug": "marshall", "city": "marshall", "state": "", "addr": "", "lat": 44.43587, "lng": -95.77134}, {"slug": "marshalltown", "city": "marshalltown", "state": "", "addr": "", "lat": 42.00622, "lng": -92.9146}, {"slug": "marshfield", "city": "marshfield", "state": "", "addr": "", "lat": 44.68091, "lng": -90.16459}, {"slug": "martinsville-in-prather-dr", "city": "martinsville-in-prather-dr", "state": "", "addr": "", "lat": 39.41352, "lng": -86.42281}, {"slug": "marysville-mi-range-rd", "city": "marysville-mi-range-rd", "state": "", "addr": "", "lat": 42.90746, "lng": -82.49913}, {"slug": "marysville-oh", "city": "marysville-oh", "state": "", "addr": "", "lat": 40.24068, "lng": -83.34296}, {"slug": "mason", "city": "mason", "state": "", "addr": "", "lat": 42.46682, "lng": -88.06572}, {"slug": "mason-city", "city": "mason-city", "state": "", "addr": "", "lat": 39.35258, "lng": -84.32333}, {"slug": "matteson", "city": "matteson", "state": "", "addr": "", "lat": 41.51238, "lng": -87.73319}, {"slug": "mauston", "city": "mauston", "state": "", "addr": "", "lat": 43.79595, "lng": -90.05956}, {"slug": "mccordsville-in-broadway", "city": "mccordsville-in-broadway", "state": "", "addr": "", "lat": 39.8962, "lng": -85.91966}, {"slug": "mcdonough-ga-hwy-81", "city": "mcdonough-ga-hwy-81", "state": "", "addr": "", "lat": 33.42653, "lng": -84.18467}, {"slug": "mcfarland", "city": "mcfarland", "state": "", "addr": "", "lat": 43.01376, "lng": -89.30219}, {"slug": "mchenry", "city": "mchenry", "state": "", "addr": "", "lat": 42.34303, "lng": -88.2497}, {"slug": "mckinney", "city": "mckinney", "state": "", "addr": "", "lat": 33.16972, "lng": -96.67214}, {"slug": "medford-wi-casement-ct", "city": "medford-wi-casement-ct", "state": "", "addr": "", "lat": 45.15107, "lng": -90.33523}, {"slug": "medina-oh-medina-rd", "city": "medina-oh-medina-rd", "state": "", "addr": "", "lat": 41.1357, "lng": -81.7891}, {"slug": "melbourne-fl-n-wickham-rd", "city": "melbourne-fl-n-wickham-rd", "state": "", "addr": "", "lat": 28.18358, "lng": -80.67133}, {"slug": "menomonee-falls", "city": "menomonee-falls", "state": "", "addr": "", "lat": 43.22075, "lng": -87.92344}, {"slug": "menomonie", "city": "menomonie", "state": "", "addr": "", "lat": 44.90294, "lng": -91.93484}, {"slug": "menomonie-wi-oak-ave", "city": "menomonie-wi-oak-ave", "state": "", "addr": "", "lat": 44.90294, "lng": -91.93484}, {"slug": "mequon", "city": "mequon", "state": "", "addr": "", "lat": 43.22075, "lng": -87.92344}, {"slug": "meridian-id-ustick-rd", "city": "meridian-id-ustick-rd", "state": "", "addr": "", "lat": 43.79595, "lng": -90.05956}, {"slug": "merrill", "city": "merrill", "state": "", "addr": "", "lat": 41.47345, "lng": -87.31756}, {"slug": "merrillville", "city": "merrillville", "state": "", "addr": "", "lat": 41.47345, "lng": -87.31756}, {"slug": "mesa", "city": "mesa", "state": "", "addr": "", "lat": 33.37997, "lng": -111.83955}, {"slug": "mesa-az-crismon-rd", "city": "mesa-az-crismon-rd", "state": "", "addr": "", "lat": 33.39149, "lng": -111.61473}, {"slug": "mesa-az-e-mckellips-rd", "city": "mesa-az-e-mckellips-rd", "state": "", "addr": "", "lat": 33.38115, "lng": -111.73882}, {"slug": "mesa-az-greenfield", "city": "mesa-az-greenfield", "state": "", "addr": "", "lat": 33.38115, "lng": -111.73882}, {"slug": "middleburg-fl-blanding-blvd", "city": "middleburg-fl-blanding-blvd", "state": "", "addr": "", "lat": 30.1054, "lng": -81.8259}, {"slug": "middleton", "city": "middleton", "state": "", "addr": "", "lat": 43.10622, "lng": -89.5113}, {"slug": "midland-mi", "city": "midland-mi", "state": "", "addr": "", "lat": 43.66361, "lng": -84.24554}, {"slug": "midvale", "city": "midvale", "state": "", "addr": "", "lat": 40.62122, "lng": -111.91177}, {"slug": "milton-fl-us-hwy-90", "city": "milton-fl-us-hwy-90", "state": "", "addr": "", "lat": 30.61032, "lng": -87.05632}, {"slug": "milwaukee-fond-du-lac", "city": "milwaukee-fond-du-lac", "state": "", "addr": "", "lat": 40.43539, "lng": -86.128}, {"slug": "milwaukee-good-hope", "city": "milwaukee-good-hope", "state": "", "addr": "", "lat": 43.14823, "lng": -88.00408}, {"slug": "milwaukee-layton", "city": "milwaukee-layton", "state": "", "addr": "", "lat": 42.95858, "lng": -87.91894}, {"slug": "minnetonka-mn-hwy-7", "city": "minnetonka-mn-hwy-7", "state": "", "addr": "", "lat": 44.91343, "lng": -93.50253}, {"slug": "minocqua", "city": "minocqua", "state": "", "addr": "", "lat": 45.89917, "lng": -89.69826}, {"slug": "minooka", "city": "minooka", "state": "", "addr": "", "lat": 41.42172, "lng": -88.27077}, {"slug": "minot-nd-broadway", "city": "minot-nd-broadway", "state": "", "addr": "", "lat": 48.20315, "lng": -101.297}, {"slug": "mishawaka", "city": "mishawaka", "state": "", "addr": "", "lat": 41.71097, "lng": -86.17888}, {"slug": "mishawaka-in-mckinley-hwy", "city": "mishawaka-in-mckinley-hwy", "state": "", "addr": "", "lat": 41.68499, "lng": -86.11092}, {"slug": "mission-ks", "city": "mission-ks", "state": "", "addr": "", "lat": 39.02017, "lng": -94.66721}, {"slug": "mitchell", "city": "mitchell", "state": "", "addr": "", "lat": 43.68854, "lng": -98.01242}, {"slug": "mobile-al-airport-blvd", "city": "mobile-al-airport-blvd", "state": "", "addr": "", "lat": 30.67657, "lng": -88.14567}, {"slug": "moline", "city": "moline", "state": "", "addr": "", "lat": 41.42644, "lng": -87.75359}, {"slug": "monee-il", "city": "monee-il", "state": "", "addr": "", "lat": 41.42644, "lng": -87.75359}, {"slug": "monroe", "city": "monroe", "state": "", "addr": "", "lat": 42.60308, "lng": -89.65598}, {"slug": "monroe-mi-telegraph", "city": "monroe-mi-telegraph", "state": "", "addr": "", "lat": 41.94814, "lng": -83.40157}, {"slug": "monroe-oh", "city": "monroe-oh", "state": "", "addr": "", "lat": 41.68318, "lng": -83.62427}, {"slug": "monticello", "city": "monticello", "state": "", "addr": "", "lat": 34.49141, "lng": -114.34998}, {"slug": "montrose-co-wolverine-dr", "city": "montrose-co-wolverine-dr", "state": "", "addr": "", "lat": 38.44554, "lng": -107.86736}, {"slug": "mooresville-in-s-indiana-st", "city": "mooresville-in-s-indiana-st", "state": "", "addr": "", "lat": 39.60397, "lng": -86.37587}, {"slug": "mooresville-nc-talbert-rd", "city": "mooresville-nc-talbert-rd", "state": "", "addr": "", "lat": 35.58331, "lng": -80.85249}, {"slug": "morris", "city": "morris", "state": "", "addr": "", "lat": 41.38227, "lng": -88.42138}, {"slug": "morton", "city": "morton", "state": "", "addr": "", "lat": 40.62905, "lng": -89.46377}, {"slug": "morton-grove", "city": "morton-grove", "state": "", "addr": "", "lat": 42.04113, "lng": -87.80979}, {"slug": "mt-dora-us-highway-441", "city": "mt-dora-us-highway-441", "state": "", "addr": "", "lat": 28.82341, "lng": -81.64133}, {"slug": "mt-horeb", "city": "mt-horeb", "state": "", "addr": "", "lat": 43.01062, "lng": -89.7178}, {"slug": "mt-juliet-tn-old-pleasant-grove-rd", "city": "mt-juliet-tn-old-pleasant-grove-rd", "state": "", "addr": "", "lat": 36.17561, "lng": -86.51469}, {"slug": "mt-pleasant", "city": "mt-pleasant", "state": "", "addr": "", "lat": 43.61254, "lng": -84.76501}, {"slug": "mt-prospect", "city": "mt-prospect", "state": "", "addr": "", "lat": 42.03649, "lng": -87.95866}, {"slug": "mt-vernon-il-veterans-memorial", "city": "mt-vernon-il-veterans-memorial", "state": "", "addr": "", "lat": 38.30185, "lng": -88.94269}, {"slug": "mukwonago", "city": "mukwonago", "state": "", "addr": "", "lat": 42.87863, "lng": -88.33945}, {"slug": "muncie-in", "city": "muncie-in", "state": "", "addr": "", "lat": 40.21934, "lng": -85.40137}, {"slug": "mundelein", "city": "mundelein", "state": "", "addr": "", "lat": 42.24018, "lng": -87.98774}, {"slug": "murfreesboro", "city": "murfreesboro", "state": "", "addr": "", "lat": 35.85799, "lng": -86.43997}, {"slug": "murfreesboro-tn-rutherford", "city": "murfreesboro-tn-rutherford", "state": "", "addr": "", "lat": 35.83432, "lng": -86.35181}, {"slug": "murray", "city": "murray", "state": "", "addr": "", "lat": 36.62705, "lng": -88.31318}, {"slug": "muscatine", "city": "muscatine", "state": "", "addr": "", "lat": 41.45988, "lng": -91.01881}, {"slug": "muskego", "city": "muskego", "state": "", "addr": "", "lat": 42.90006, "lng": -88.14869}, {"slug": "muskegon-mi-independence-drive", "city": "muskegon-mi-independence-drive", "state": "", "addr": "", "lat": 43.15828, "lng": -86.20188}, {"slug": "muskegon-mi-n-getty-st", "city": "muskegon-mi-n-getty-st", "state": "", "addr": "", "lat": 43.28362, "lng": -86.22288}, {"slug": "n-charleston-tanger-outlet", "city": "n-charleston-tanger-outlet", "state": "", "addr": "", "lat": 32.87584, "lng": -80.01687}, {"slug": "naperville-il-naper-blvd", "city": "naperville-il-naper-blvd", "state": "", "addr": "", "lat": 41.79739, "lng": -88.12032}, {"slug": "naples-fl-airport-pulling", "city": "naples-fl-airport-pulling", "state": "", "addr": "", "lat": 26.21639, "lng": -81.76891}, {"slug": "naples-fl-immokalee-rd", "city": "naples-fl-immokalee-rd", "state": "", "addr": "", "lat": 26.27419, "lng": -81.68417}, {"slug": "naples-fl-tamiami-trl", "city": "naples-fl-tamiami-trl", "state": "", "addr": "", "lat": 26.10539, "lng": -81.7473}, {"slug": "narcoossee-rd-orlando-fl", "city": "narcoossee-rd-orlando-fl", "state": "", "addr": "", "lat": 28.39068, "lng": -81.24497}, {"slug": "navarre", "city": "navarre", "state": "", "addr": "", "lat": 44.93515, "lng": -93.60739}, {"slug": "navarre-fl", "city": "navarre-fl", "state": "", "addr": "", "lat": 30.40376, "lng": -86.85512}, {"slug": "neenah", "city": "neenah", "state": "", "addr": "", "lat": 44.17433, "lng": -88.49274}, {"slug": "new-berlin", "city": "new-berlin", "state": "", "addr": "", "lat": 42.98251, "lng": -88.09872}, {"slug": "new-castle-in-memorial", "city": "new-castle-in-memorial", "state": "", "addr": "", "lat": 42.80582, "lng": -89.63229}, {"slug": "new-glarus", "city": "new-glarus", "state": "", "addr": "", "lat": 42.80582, "lng": -89.63229}, {"slug": "new-haven-in-state-rd-930", "city": "new-haven-in-state-rd-930", "state": "", "addr": "", "lat": 41.06862, "lng": -85.05946}, {"slug": "new-lenox", "city": "new-lenox", "state": "", "addr": "", "lat": 41.51274, "lng": -87.95587}, {"slug": "new-richmond-wi-grant-way", "city": "new-richmond-wi-grant-way", "state": "", "addr": "", "lat": 45.10145, "lng": -92.53826}, {"slug": "new-smyrna-beach-state-road-44", "city": "new-smyrna-beach-state-road-44", "state": "", "addr": "", "lat": 29.01349, "lng": -80.97742}, {"slug": "newburgh-in-highpointe-dr", "city": "newburgh-in-highpointe-dr", "state": "", "addr": "", "lat": 41.68488, "lng": -93.07867}, {"slug": "newnan-ga-newnan-crossing-byp", "city": "newnan-ga-newnan-crossing-byp", "state": "", "addr": "", "lat": 33.39011, "lng": -84.7619}, {"slug": "newton", "city": "newton", "state": "", "addr": "", "lat": 34.70715, "lng": -86.7504}, {"slug": "nicholasville-ky", "city": "nicholasville-ky", "state": "", "addr": "", "lat": 37.89647, "lng": -84.56694}, {"slug": "niles-mi-s-11th-st", "city": "niles-mi-s-11th-st", "state": "", "addr": "", "lat": 41.8115, "lng": -86.2487}, {"slug": "noblesville", "city": "noblesville", "state": "", "addr": "", "lat": 40.04646, "lng": -86.02598}, {"slug": "norfolk", "city": "norfolk", "state": "", "addr": "", "lat": 44.17986, "lng": -94.03354}, {"slug": "north-aurora", "city": "north-aurora", "state": "", "addr": "", "lat": 41.79038, "lng": -88.32146}, {"slug": "north-liberty-ia-lininger-ln", "city": "north-liberty-ia-lininger-ln", "state": "", "addr": "", "lat": 41.7529, "lng": -91.6356}, {"slug": "north-mankato", "city": "north-mankato", "state": "", "addr": "", "lat": 44.17986, "lng": -94.03354}, {"slug": "north-port-fl-tuscola-blvd", "city": "north-port-fl-tuscola-blvd", "state": "", "addr": "", "lat": 27.04067, "lng": -82.22535}, {"slug": "north-ridgeville-lorain-rd", "city": "north-ridgeville-lorain-rd", "state": "", "addr": "", "lat": 41.3845, "lng": -81.97861}, {"slug": "northbrook-il-dundee-rd", "city": "northbrook-il-dundee-rd", "state": "", "addr": "", "lat": 42.1381, "lng": -87.8819}, {"slug": "northfield", "city": "northfield", "state": "", "addr": "", "lat": 44.45014, "lng": -93.17084}, {"slug": "norwalk-ia-hughes-dr", "city": "norwalk-ia-hughes-dr", "state": "", "addr": "", "lat": 41.48441, "lng": -93.67349}, {"slug": "novi-mi-novi-rd", "city": "novi-mi-novi-rd", "state": "", "addr": "", "lat": 42.49144, "lng": -83.47694}, {"slug": "oak-creek", "city": "oak-creek", "state": "", "addr": "", "lat": 42.90163, "lng": -87.91262}, {"slug": "oak-forest-il-159st", "city": "oak-forest-il-159st", "state": "", "addr": "", "lat": 41.60352, "lng": -87.75153}, {"slug": "oak-lawn-il-cicero-ave", "city": "oak-lawn-il-cicero-ave", "state": "", "addr": "", "lat": 41.69671, "lng": -87.73938}, {"slug": "oak-ridge-tn-oak-ridge-turnpike", "city": "oak-ridge-tn-oak-ridge-turnpike", "state": "", "addr": "", "lat": 36.01215, "lng": -84.26696}, {"slug": "ocala-fl-silver-springs-blvd", "city": "ocala-fl-silver-springs-blvd", "state": "", "addr": "", "lat": 29.18696, "lng": -82.18333}, {"slug": "ocala-fl-sw-college-rd", "city": "ocala-fl-sw-college-rd", "state": "", "addr": "", "lat": 29.1344, "lng": -82.2001}, {"slug": "oconomowoc", "city": "oconomowoc", "state": "", "addr": "", "lat": 43.09289, "lng": -88.47897}, {"slug": "ofallon-il", "city": "ofallon-il", "state": "", "addr": "", "lat": 38.59301, "lng": -89.95753}, {"slug": "ofallon-mo", "city": "ofallon-mo", "state": "", "addr": "", "lat": 38.72311, "lng": -90.69993}, {"slug": "ofallon-mo-mexico-rd", "city": "ofallon-mo-mexico-rd", "state": "", "addr": "", "lat": 38.79269, "lng": -90.69466}, {"slug": "okeechobee-fl-ne-park-st", "city": "okeechobee-fl-ne-park-st", "state": "", "addr": "", "lat": 27.24432, "lng": -80.81772}, {"slug": "okemos", "city": "okemos", "state": "", "addr": "", "lat": 42.73054, "lng": -84.41031}, {"slug": "okemos-mi-okemos-rd", "city": "okemos-mi-okemos-rd", "state": "", "addr": "", "lat": 42.68038, "lng": -84.43195}, {"slug": "olathe", "city": "olathe", "state": "", "addr": "", "lat": 38.85428, "lng": -94.80334}, {"slug": "olathe-ks-s-mur-len-rd", "city": "olathe-ks-s-mur-len-rd", "state": "", "addr": "", "lat": 38.88225, "lng": -94.77892}, {"slug": "omaha-miami", "city": "omaha-miami", "state": "", "addr": "", "lat": 41.28259, "lng": -96.10017}, {"slug": "omaha-millard", "city": "omaha-millard", "state": "", "addr": "", "lat": 41.20578, "lng": -96.15261}, {"slug": "omaha-ne-evans-st", "city": "omaha-ne-evans-st", "state": "", "addr": "", "lat": 41.2916, "lng": -96.18401}, {"slug": "onalaska", "city": "onalaska", "state": "", "addr": "", "lat": 42.43376, "lng": -87.8251}, {"slug": "onalaska-wi-oak-ave", "city": "onalaska-wi-oak-ave", "state": "", "addr": "", "lat": 43.87434, "lng": -91.2294}, {"slug": "ontario-oh-lexington-springmill-rd", "city": "ontario-oh-lexington-springmill-rd", "state": "", "addr": "", "lat": 40.79023, "lng": -82.58949}, {"slug": "oostburg-wi-s-business-park-dr", "city": "oostburg-wi-s-business-park-dr", "state": "", "addr": "", "lat": 43.62249, "lng": -87.77614}, {"slug": "orange-beach-al-canal-rd", "city": "orange-beach-al-canal-rd", "state": "", "addr": "", "lat": 30.29078, "lng": -87.6216}, {"slug": "oregon-oh-navarre-ave", "city": "oregon-oh-navarre-ave", "state": "", "addr": "", "lat": 41.63647, "lng": -83.47961}, {"slug": "oregon-park-st", "city": "oregon-park-st", "state": "", "addr": "", "lat": 42.91734, "lng": -89.36961}, {"slug": "orem-ut", "city": "orem-ut", "state": "", "addr": "", "lat": 42.79162, "lng": -88.39274}, {"slug": "orion-twp-grand-ave", "city": "orion-twp-grand-ave", "state": "", "addr": "", "lat": 42.90328, "lng": -85.79338}, {"slug": "orland-park", "city": "orland-park", "state": "", "addr": "", "lat": 41.60188, "lng": -87.842}, {"slug": "orlando-fl-east-colonial-dr", "city": "orlando-fl-east-colonial-dr", "state": "", "addr": "", "lat": 28.56461, "lng": -81.18414}, {"slug": "orlando-fl-millenia-blvd", "city": "orlando-fl-millenia-blvd", "state": "", "addr": "", "lat": 34.70715, "lng": -86.7504}, {"slug": "ormond-beach-fl-granada-blvd", "city": "ormond-beach-fl-granada-blvd", "state": "", "addr": "", "lat": 29.27955, "lng": -81.07363}, {"slug": "osage-beach", "city": "osage-beach", "state": "", "addr": "", "lat": 38.12071, "lng": -92.67942}, {"slug": "oshkosh-koeller", "city": "oshkosh-koeller", "state": "", "addr": "", "lat": 44.00333, "lng": -88.58127}, {"slug": "oshkosh-westowne", "city": "oshkosh-westowne", "state": "", "addr": "", "lat": 44.03088, "lng": -88.59008}, {"slug": "oswego", "city": "oswego", "state": "", "addr": "", "lat": 41.70086, "lng": -88.31514}, {"slug": "otsego-mi-allegan", "city": "otsego-mi-allegan", "state": "", "addr": "", "lat": 42.45047, "lng": -85.67804}, {"slug": "ottawa", "city": "ottawa", "state": "", "addr": "", "lat": 41.37358, "lng": -88.83527}, {"slug": "ottumwa-ia-venture", "city": "ottumwa-ia-venture", "state": "", "addr": "", "lat": 41.01627, "lng": -92.45264}, {"slug": "overland-park", "city": "overland-park", "state": "", "addr": "", "lat": 38.88448, "lng": -94.68488}, {"slug": "oviedo-fl-mitchell-hammock", "city": "oviedo-fl-mitchell-hammock", "state": "", "addr": "", "lat": 28.65608, "lng": -81.22266}, {"slug": "owatonna", "city": "owatonna", "state": "", "addr": "", "lat": 44.0958, "lng": -93.24886}, {"slug": "owensboro", "city": "owensboro", "state": "", "addr": "", "lat": 37.75534, "lng": -87.06818}, {"slug": "owosso-mi-e-main-st", "city": "owosso-mi-e-main-st", "state": "", "addr": "", "lat": 42.99892, "lng": -84.11992}, {"slug": "oxford-al-recreation-dr", "city": "oxford-al-recreation-dr", "state": "", "addr": "", "lat": 41.5466, "lng": -83.5931}, {"slug": "oxford-mi-lapeer-rd", "city": "oxford-mi-lapeer-rd", "state": "", "addr": "", "lat": 42.83218, "lng": -83.27113}, {"slug": "ozark-mo-21st-st", "city": "ozark-mo-21st-st", "state": "", "addr": "", "lat": 37.0716, "lng": -93.231}, {"slug": "paddock-lake-wi-antioch-rd", "city": "paddock-lake-wi-antioch-rd", "state": "", "addr": "", "lat": 42.56718, "lng": -88.11666}, {"slug": "paducah-ky-old-hwy-60", "city": "paducah-ky-old-hwy-60", "state": "", "addr": "", "lat": 37.07105, "lng": -88.70381}, {"slug": "palatine", "city": "palatine", "state": "", "addr": "", "lat": 42.14272, "lng": -88.02452}, {"slug": "palm-coast-fl-e-hwy-100", "city": "palm-coast-fl-e-hwy-100", "state": "", "addr": "", "lat": 29.47488, "lng": -81.22027}, {"slug": "palmetto-fl-us-301", "city": "palmetto-fl-us-301", "state": "", "addr": "", "lat": 27.52075, "lng": -82.54573}, {"slug": "panama-city-beach-fl-panama-city-beach-pkwy", "city": "panama-city-beach-fl-panama-city-beach-pkwy", "state": "", "addr": "", "lat": 30.19674, "lng": -85.8148}, {"slug": "panama-city-fl-s-tyndall-pkwy", "city": "panama-city-fl-s-tyndall-pkwy", "state": "", "addr": "", "lat": 30.13685, "lng": -85.5915}, {"slug": "parker-co", "city": "parker-co", "state": "", "addr": "", "lat": 39.51865, "lng": -104.77428}, {"slug": "parrish-fl-us-hwy-301", "city": "parrish-fl-us-hwy-301", "state": "", "addr": "", "lat": 27.55619, "lng": -82.45273}, {"slug": "paw-paw-mi-co-rd-665", "city": "paw-paw-mi-co-rd-665", "state": "", "addr": "", "lat": 42.204, "lng": -85.8881}, {"slug": "payson-az-hwy-260", "city": "payson-az-hwy-260", "state": "", "addr": "", "lat": 33.2848, "lng": -111.7559}, {"slug": "pekin", "city": "pekin", "state": "", "addr": "", "lat": 40.54274, "lng": -89.59852}, {"slug": "pella-ia", "city": "pella-ia", "state": "", "addr": "", "lat": 41.41046, "lng": -92.93182}, {"slug": "pensacola-fl-bayou-blvd", "city": "pensacola-fl-bayou-blvd", "state": "", "addr": "", "lat": 41.41046, "lng": -92.93182}, {"slug": "pensacola-fl-boesch-ln", "city": "pensacola-fl-boesch-ln", "state": "", "addr": "", "lat": 33.61164, "lng": -112.23682}, {"slug": "pensacola-fl-mobile-hwy", "city": "pensacola-fl-mobile-hwy", "state": "", "addr": "", "lat": 30.4627, "lng": -87.3014}, {"slug": "peoria-az", "city": "peoria-az", "state": "", "addr": "", "lat": 33.61164, "lng": -112.23682}, {"slug": "peoria-az-deer-valley-rd", "city": "peoria-az-deer-valley-rd", "state": "", "addr": "", "lat": 33.68203, "lng": -112.23917}, {"slug": "peoria-holiday", "city": "peoria-holiday", "state": "", "addr": "", "lat": 40.77509, "lng": -89.67245}, {"slug": "peoria-il-n-centerway-dr", "city": "peoria-il-n-centerway-dr", "state": "", "addr": "", "lat": 40.81653, "lng": -89.61389}, {"slug": "peoria-university", "city": "peoria-university", "state": "", "addr": "", "lat": 40.74398, "lng": -89.61191}, {"slug": "perrysburg-oh-fremont-pike", "city": "perrysburg-oh-fremont-pike", "state": "", "addr": "", "lat": 41.5466, "lng": -83.5931}, {"slug": "peru", "city": "peru", "state": "", "addr": "", "lat": 41.34722, "lng": -89.12422}, {"slug": "petoskey-mi-31-n", "city": "petoskey-mi-31-n", "state": "", "addr": "", "lat": 45.38877, "lng": -84.91405}, {"slug": "phenix-city-hwy-280", "city": "phenix-city-hwy-280", "state": "", "addr": "", "lat": 32.4961, "lng": -85.0434}, {"slug": "phoenix-camelback", "city": "phoenix-camelback", "state": "", "addr": "", "lat": 33.50882, "lng": -112.0631}, {"slug": "phoenix-cave-creek", "city": "phoenix-cave-creek", "state": "", "addr": "", "lat": 33.6764, "lng": -112.03044}, {"slug": "phoeniz-deer-valley", "city": "phoeniz-deer-valley", "state": "", "addr": "", "lat": 33.68322, "lng": -112.09796}, {"slug": "pinellas-park-fl-park-blvd", "city": "pinellas-park-fl-park-blvd", "state": "", "addr": "", "lat": 27.83878, "lng": -82.69822}, {"slug": "plainfield", "city": "plainfield", "state": "", "addr": "", "lat": 39.71621, "lng": -86.35754}, {"slug": "plainfield-il", "city": "plainfield-il", "state": "", "addr": "", "lat": 41.63768, "lng": -88.20226}, {"slug": "plano-il-lakeside-rd", "city": "plano-il-lakeside-rd", "state": "", "addr": "", "lat": 41.63768, "lng": -88.20226}, {"slug": "plant-city-n-park-rd-fl", "city": "plant-city-n-park-rd-fl", "state": "", "addr": "", "lat": 28.03331, "lng": -82.10558}, {"slug": "platte-city-mo-prairie-view", "city": "platte-city-mo-prairie-view", "state": "", "addr": "", "lat": 39.35732, "lng": -94.76713}, {"slug": "platteville", "city": "platteville", "state": "", "addr": "", "lat": 42.72735, "lng": -90.47376}, {"slug": "pleasant-prairie", "city": "pleasant-prairie", "state": "", "addr": "", "lat": 42.52318, "lng": -87.94592}, {"slug": "plover-wi-plover-rd", "city": "plover-wi-plover-rd", "state": "", "addr": "", "lat": 44.45349, "lng": -89.52437}, {"slug": "plymouth", "city": "plymouth", "state": "", "addr": "", "lat": 43.74773, "lng": -87.95317}, {"slug": "plymouth-in-michigan-st", "city": "plymouth-in-michigan-st", "state": "", "addr": "", "lat": 41.35941, "lng": -86.31087}, {"slug": "plymouth-peony", "city": "plymouth-peony", "state": "", "addr": "", "lat": 45.03456, "lng": -93.50949}, {"slug": "plymouth-quinwood", "city": "plymouth-quinwood", "state": "", "addr": "", "lat": 45.06527, "lng": -93.44018}, {"slug": "pooler-ga-tanger-blvd", "city": "pooler-ga-tanger-blvd", "state": "", "addr": "", "lat": 32.13655, "lng": -81.2466}, {"slug": "port-charlotte-el-jobean-rd", "city": "port-charlotte-el-jobean-rd", "state": "", "addr": "", "lat": 27.01069, "lng": -82.15064}, {"slug": "port-charlotte-fl", "city": "port-charlotte-fl", "state": "", "addr": "", "lat": 27.02279, "lng": -82.0472}, {"slug": "port-orange-fl-dunlawton", "city": "port-orange-fl-dunlawton", "state": "", "addr": "", "lat": 29.11121, "lng": -81.02489}, {"slug": "port-richey-fl", "city": "port-richey-fl", "state": "", "addr": "", "lat": 28.28016, "lng": -82.71838}, {"slug": "port-st-lucie-fl-tradition-pkwy", "city": "port-st-lucie-fl-tradition-pkwy", "state": "", "addr": "", "lat": 27.26389, "lng": -80.4343}, {"slug": "port-washington", "city": "port-washington", "state": "", "addr": "", "lat": 43.38614, "lng": -87.8972}, {"slug": "portage", "city": "portage", "state": "", "addr": "", "lat": 29.18696, "lng": -82.18333}, {"slug": "portage-in", "city": "portage-in", "state": "", "addr": "", "lat": 41.54993, "lng": -87.17744}, {"slug": "portage-in-olmstead-dr", "city": "portage-in-olmstead-dr", "state": "", "addr": "", "lat": 41.60644, "lng": -87.17114}, {"slug": "portage-mi", "city": "portage-mi", "state": "", "addr": "", "lat": 42.21158, "lng": -85.58996}, {"slug": "powell", "city": "powell", "state": "", "addr": "", "lat": 40.15807, "lng": -83.09666}, {"slug": "powell-tn-w-emory-rd", "city": "powell-tn-w-emory-rd", "state": "", "addr": "", "lat": 36.04156, "lng": -84.00945}, {"slug": "prairie-du-chien", "city": "prairie-du-chien", "state": "", "addr": "", "lat": 43.02872, "lng": -91.12894}, {"slug": "prescott-az-willow-creek", "city": "prescott-az-willow-creek", "state": "", "addr": "", "lat": 34.5954, "lng": -112.4651}, {"slug": "prescott-valley-stoneridge-az", "city": "prescott-valley-stoneridge-az", "state": "", "addr": "", "lat": 34.57987, "lng": -112.36108}, {"slug": "princeton", "city": "princeton", "state": "", "addr": "", "lat": 42.06224, "lng": -88.31506}, {"slug": "princeton-mn-19th-ave-n", "city": "princeton-mn-19th-ave-n", "state": "", "addr": "", "lat": 45.57176, "lng": -93.60007}, {"slug": "prior-lake-mn-credit-river-rd", "city": "prior-lake-mn-credit-river-rd", "state": "", "addr": "", "lat": 40.05758, "lng": -84.24567}, {"slug": "pueblo-co", "city": "pueblo-co", "state": "", "addr": "", "lat": 38.21901, "lng": -104.63728}, {"slug": "punta-gorda-loop-road", "city": "punta-gorda-loop-road", "state": "", "addr": "", "lat": 26.89526, "lng": -82.0104}, {"slug": "queen-creek-az-ocotillo-rd", "city": "queen-creek-az-ocotillo-rd", "state": "", "addr": "", "lat": 33.24949, "lng": -111.56601}, {"slug": "queen-creek-az-s-ellsworth-rd", "city": "queen-creek-az-s-ellsworth-rd", "state": "", "addr": "", "lat": 33.2337, "lng": -111.63371}, {"slug": "quincy-il", "city": "quincy-il", "state": "", "addr": "", "lat": 39.93505, "lng": -91.37594}, {"slug": "racine-21st", "city": "racine-21st", "state": "", "addr": "", "lat": 42.70476, "lng": -87.84991}, {"slug": "racine-sylvania", "city": "racine-sylvania", "state": "", "addr": "", "lat": 42.72586, "lng": -87.95706}, {"slug": "racine-wi-douglas-ave", "city": "racine-wi-douglas-ave", "state": "", "addr": "", "lat": 40.30863, "lng": -88.172}, {"slug": "rantoul-il-champaign-ave", "city": "rantoul-il-champaign-ave", "state": "", "addr": "", "lat": 40.30863, "lng": -88.172}, {"slug": "rapid-city", "city": "rapid-city", "state": "", "addr": "", "lat": 38.40487, "lng": -86.93726}, {"slug": "rapid-city-eglin", "city": "rapid-city-eglin", "state": "", "addr": "", "lat": 44.10176, "lng": -103.19212}, {"slug": "rapid-city-mt-rushmore-rd", "city": "rapid-city-mt-rushmore-rd", "state": "", "addr": "", "lat": 44.06137, "lng": -103.23288}, {"slug": "raymore", "city": "raymore", "state": "", "addr": "", "lat": 41.94814, "lng": -83.40157}, {"slug": "red-wing", "city": "red-wing", "state": "", "addr": "", "lat": 44.56538, "lng": -92.58481}, {"slug": "reedsburg", "city": "reedsburg", "state": "", "addr": "", "lat": 43.53296, "lng": -89.97797}, {"slug": "republic-e-us-60", "city": "republic-e-us-60", "state": "", "addr": "", "lat": 37.1336, "lng": -93.45731}, {"slug": "reynoldsburg", "city": "reynoldsburg", "state": "", "addr": "", "lat": 39.94489, "lng": -82.79475}, {"slug": "rhinelander", "city": "rhinelander", "state": "", "addr": "", "lat": 45.63293, "lng": -89.43169}, {"slug": "rice-lake", "city": "rice-lake", "state": "", "addr": "", "lat": 45.47688, "lng": -91.73661}, {"slug": "richland-center", "city": "richland-center", "state": "", "addr": "", "lat": 43.31257, "lng": -90.34554}, {"slug": "richmond", "city": "richmond", "state": "", "addr": "", "lat": 37.73695, "lng": -84.3307}, {"slug": "richmond-in-chester-blvd", "city": "richmond-in-chester-blvd", "state": "", "addr": "", "lat": 39.8617, "lng": -84.8896}, {"slug": "richmond-in-commerce-rd", "city": "richmond-in-commerce-rd", "state": "", "addr": "", "lat": 39.8334, "lng": -84.8231}, {"slug": "rifle-co-airport-rd", "city": "rifle-co-airport-rd", "state": "", "addr": "", "lat": 39.52314, "lng": -107.7718}, {"slug": "ripon", "city": "ripon", "state": "", "addr": "", "lat": 43.8536, "lng": -88.85876}, {"slug": "river-falls-wi-main-st", "city": "river-falls-wi-main-st", "state": "", "addr": "", "lat": 44.87121, "lng": -92.62247}, {"slug": "riverview-fl-big-bend-rd", "city": "riverview-fl-big-bend-rd", "state": "", "addr": "", "lat": 27.79184, "lng": -82.33113},