[{"slug": "albertville-al-mathis-mill", "city": "Albertville", "state": "AL", "addr": "500 Mathis Mill Rd", "lat": 34.27881, "lng": -86.21029}, {"slug": "auburn-al-university-dr", "city": "Auburn", "state": "AL", "addr": "2080 E University Dr", "lat": 32.6266, "lng": -85.4492}, {"slug": "birmingham-al-tattersall-blvd", "city": "Birmingham", "state": "AL", "addr": "6222 Tattersall Blvd", "lat": 33.42158, "lng": -86.66989}, {"slug": "decatur-al-6th-ave", "city": "Decatur", "state": "AL", "addr": "2009 6th Ave SE", "lat": 34.574, "lng": -86.97472}, {"slug": "fairhope-al-state-hwy-181", "city": "Fairhope", "state": "AL", "addr": "22147 State Hwy 181", "lat": 30.5478, "lng": -87.85303}, {"slug": "florence-al-cloverdale-rd", "city": "Florence", "state": "AL", "addr": "2713 Cloverdale Rd", "lat": 34.8426, "lng": -87.6891}, {"slug": "foley-al-s-mckenzie-st", "city": "Foley", "state": "AL", "addr": "3241 S McKenzie St", "lat": 30.36568, "lng": -87.68259}, {"slug": "hampton-cove-al-us-hwy-431", "city": "Hampton Cove", "state": "AL", "addr": "6490 US Highway 431 S", "lat": 34.664, "lng": -86.48673}, {"slug": "hazel-green-al-us-231", "city": "Hazel Green", "state": "AL", "addr": "14359 Hwy 231-431 N", "lat": 34.93741, "lng": -86.5724}, {"slug": "hoover-al-john-hawkins-pkwy", "city": "Hoover", "state": "AL", "addr": "1037 Amber Dr", "lat": 33.35463, "lng": -86.84822}, {"slug": "huntsville-al-memorial-pkwy-sw", "city": "Huntsville", "state": "AL", "addr": "10030 Memorial Pkwy SW", "lat": 34.6442, "lng": -86.5676}, {"slug": "huntsville-al-winchester-rd", "city": "Huntsville", "state": "AL", "addr": "2007 Winchester Road", "lat": 34.81513, "lng": -86.5002}, {"slug": "madison-al-wall-triana-hwy", "city": "Madison", "state": "AL", "addr": "4567 Wall Triana Hwy", "lat": 34.70715, "lng": -86.7504}, {"slug": "madison-us-hwy-72-w", "city": "Madison", "state": "AL", "addr": "8382 US Hwy 72 W", "lat": 34.75009, "lng": -86.76489}, {"slug": "mobile-al-airport-blvd", "city": "Mobile", "state": "AL", "addr": "3930 Airport Blvd", "lat": 30.67657, "lng": -88.14567}, {"slug": "orange-beach-al-canal-rd", "city": "Orange Beach", "state": "AL", "addr": "23671 Canal Road", "lat": 30.29078, "lng": -87.6216}, {"slug": "oxford-al-recreation-dr", "city": "Oxford", "state": "AL", "addr": "3 Recreation Dr", "lat": 33.60621, "lng": -85.82662}, {"slug": "phenix-city-hwy-280", "city": "Phenix City", "state": "AL", "addr": "3650 Market Place Dr", "lat": 32.4961, "lng": -85.0434}, {"slug": "bentonville-walton-blvd", "city": "Bentonville", "state": "AR", "addr": "1003 S Walton Blvd", "lat": 36.3611, "lng": -94.2164}, {"slug": "harrison-ar-hwy-43-n", "city": "Harrison", "state": "AR", "addr": "111 AR-43", "lat": 36.25621, "lng": -93.12223}, {"slug": "rogers-ar-new-hope-rd", "city": "Rogers", "state": "AR", "addr": "4204 W New Hope Rd", "lat": 36.31336, "lng": -94.17755}, {"slug": "avondale", "city": "Avondale", "state": "AZ", "addr": "1025 North Avondale Blvd", "lat": 33.45723, "lng": -112.3059}, {"slug": "buckeye-az-verrado-way", "city": "Buckeye", "state": "AZ", "addr": "1540 N Verrado Way", "lat": 33.46476, "lng": -112.50476}, {"slug": "bullhead-city-az-hwy-95", "city": "Bullhead City", "state": "AZ", "addr": "3699 Hwy 95 #700", "lat": 35.05463, "lng": -114.59032}, {"slug": "casa-grande", "city": "Casa Grande", "state": "AZ", "addr": "2453 E Florence Blvd", "lat": 32.87909, "lng": -111.68156}, {"slug": "chandler", "city": "Chandler", "state": "AZ", "addr": "3155 W Ray Road", "lat": 33.3198, "lng": -111.89658}, {"slug": "chandler-az-s-arizona-rd", "city": "Chandler", "state": "AZ", "addr": "1510 S Arizona Ave", "lat": 33.28353, "lng": -111.84214}, {"slug": "flagstaff-az-route-66", "city": "Flagstaff", "state": "AZ", "addr": "1716 E Route 66", "lat": 35.19604, "lng": -111.62708}, {"slug": "gilbert-az-val-vista", "city": "Gilbert", "state": "AZ", "addr": "3610 S Val Vista Dr", "lat": 33.2848, "lng": -111.7559}, {"slug": "glendale-az", "city": "Glendale", "state": "AZ", "addr": "5127 N 99th Ave", "lat": 33.50947, "lng": -112.27185}, {"slug": "goodyear-az-estrella-pkwy", "city": "Goodyear", "state": "AZ", "addr": "130 N Estrella Pkwy", "lat": 33.4476, "lng": -112.3934}, {"slug": "kingman-az-airway-ave", "city": "Kingman", "state": "AZ", "addr": "1737 Airway Ave", "lat": 35.22539, "lng": -114.03491}, {"slug": "lake-havasu-city-az-countryshire-ave", "city": "Lake Havasu City", "state": "AZ", "addr": "1615 Countryshire Ave", "lat": 34.49141, "lng": -114.34998}, {"slug": "maricopa-az-john-wayne-pkwy", "city": "Maricopa", "state": "AZ", "addr": "20430 N. John Wayne Pkwy", "lat": 33.0649, "lng": -112.04855}, {"slug": "mesa", "city": "Mesa", "state": "AZ", "addr": "1909 S. Country Club Drive", "lat": 33.37997, "lng": -111.83955}, {"slug": "mesa-az-crismon-rd", "city": "Mesa", "state": "AZ", "addr": "1263 S Crismon Rd", "lat": 33.39149, "lng": -111.61473}, {"slug": "mesa-az-e-mckellips-rd", "city": "Mesa", "state": "AZ", "addr": "1830 E McKellips Rd", "lat": 33.45229, "lng": -111.79088}, {"slug": "mesa-az-greenfield", "city": "Mesa", "state": "AZ", "addr": "1841 South Greenfield Road", "lat": 33.38115, "lng": -111.73882}, {"slug": "payson-az-hwy-260", "city": "Payson", "state": "AZ", "addr": "805 E Hwy 260", "lat": 34.2413, "lng": -111.31057}, {"slug": "peoria-az", "city": "Peoria", "state": "AZ", "addr": "8271 W. Ludlow Drive", "lat": 33.61164, "lng": -112.23682}, {"slug": "peoria-az-deer-valley-rd", "city": "Peoria", "state": "AZ", "addr": "8330 W. Deer Valley Rd", "lat": 33.68203, "lng": -112.23917}, {"slug": "phoenix-camelback", "city": "Phoenix", "state": "AZ", "addr": "825 E. Camelback Rd.", "lat": 33.50882, "lng": -112.0631}, {"slug": "phoenix-cave-creek", "city": "Phoenix", "state": "AZ", "addr": "20835 North Cave Creek Road", "lat": 33.6764, "lng": -112.03044}, {"slug": "phoeniz-deer-valley", "city": "Phoenix", "state": "AZ", "addr": "1825 West Deer Valley Road", "lat": 33.68322, "lng": -112.09796}, {"slug": "prescott-az-willow-creek", "city": "Prescott", "state": "AZ", "addr": "3125 Willow Creek Rd", "lat": 34.5954, "lng": -112.4651}, {"slug": "prescott-valley-stoneridge-az", "city": "Prescott Valley", "state": "AZ", "addr": "2544 N Jasper Pkwy", "lat": 34.57987, "lng": -112.36108}, {"slug": "queen-creek-az-ocotillo-rd", "city": "Queen Creek", "state": "AZ", "addr": "140 W Ocotillo Rd", "lat": 33.24949, "lng": -111.56601}, {"slug": "queen-creek-az-s-ellsworth-rd", "city": "Queen Creek", "state": "AZ", "addr": "23651 S Ellsworth Rd", "lat": 33.2337, "lng": -111.63371}, {"slug": "sahuarita-az-s-nogales-hwy", "city": "Sahuarita", "state": "AZ", "addr": "18810 S Nogales Hwy", "lat": 31.9085, "lng": -110.9828}, {"slug": "scottsdale-az", "city": "Scottsdale", "state": "AZ", "addr": "8668 East Shea Blvd", "lat": 33.58274, "lng": -111.89365}, {"slug": "show-low-az-white-mountain-rd", "city": "Show Low", "state": "AZ", "addr": "4595 S White Mountain Rd", "lat": 34.2074, "lng": -110.0212}, {"slug": "sierra-vista-az", "city": "Sierra Vista", "state": "AZ", "addr": "632 S. HWY 92", "lat": 31.54932, "lng": -110.25805}, {"slug": "surprise", "city": "Surprise", "state": "AZ", "addr": "16145 West Bell Road", "lat": 33.63832, "lng": -112.40669}, {"slug": "tempe-az-southern-ave", "city": "Tempe", "state": "AZ", "addr": "630 East Southern Ave", "lat": 33.39347, "lng": -111.92985}, {"slug": "thatcher-az-w-main-st", "city": "Thatcher", "state": "AZ", "addr": "3343 W Main St", "lat": 32.8487, "lng": -109.7558}, {"slug": "tucson-az-campbell", "city": "Tucson", "state": "AZ", "addr": "3070 South Campbell Avenue", "lat": 32.18601, "lng": -110.94395}, {"slug": "tucson-az-first-ave", "city": "Tucson", "state": "AZ", "addr": "4810 N 1st Ave", "lat": 32.2943, "lng": -110.96052}, {"slug": "tucson-az-w-valencia-drive", "city": "Tucson", "state": "AZ", "addr": "1955 W Valencia Rd", "lat": 32.1333, "lng": -111.008}, {"slug": "tucson-broadway", "city": "Tucson", "state": "AZ", "addr": "40 S Broadway Place", "lat": 32.22053, "lng": -110.83197}, {"slug": "tucson-thornydale", "city": "Tucson", "state": "AZ", "addr": "6905 N Thornydale Rd", "lat": 32.33218, "lng": -111.04676}, {"slug": "aurora-co-buckley-rd", "city": "Aurora", "state": "CO", "addr": "1736 S Buckley Rd", "lat": 39.68455, "lng": -104.79043}, {"slug": "castle-rock-co-meadows-pkwy", "city": "Castle Rock", "state": "CO", "addr": "654 Genoa Way", "lat": 39.41024, "lng": -104.86925}, {"slug": "centennial-co-e-arapahoe", "city": "Centennial", "state": "CO", "addr": "10440 E Arapahoe Rd", "lat": 39.59451, "lng": -104.86745}, {"slug": "colorado-spring-lake-plaza", "city": "Colorado Springs", "state": "CO", "addr": "1140 Lake Plaza Drive", "lat": 38.79514, "lng": -104.80828}, {"slug": "colorado-springs-academy", "city": "Colorado Springs", "state": "CO", "addr": "7660 N. Academy Blvd.", "lat": 38.94285, "lng": -104.8006}, {"slug": "colorado-springs-new-center-point", "city": "Colorado Springs", "state": "CO", "addr": "2925 New Center Pt", "lat": 38.87305, "lng": -104.71573}, {"slug": "denver-co-n-tower-rd", "city": "Denver", "state": "CO", "addr": "5035 N Tower Rd", "lat": 39.7884, "lng": -104.7725}, {"slug": "falcon", "city": "Falcon", "state": "CO", "addr": "7220 N. Meridian Road", "lat": 38.93792, "lng": -104.6115}, {"slug": "fort-collins", "city": "Fort Collins", "state": "CO", "addr": "918 S. Lemay Avenue", "lat": 40.57533, "lng": -105.0573}, {"slug": "fountain-co", "city": "Fountain", "state": "CO", "addr": "8065 Fountain Mesa Road", "lat": 38.71541, "lng": -104.70104}, {"slug": "glenwood-springs-co-hwy-6", "city": "Glenwood Springs", "state": "CO", "addr": "51283 Hwy 6", "lat": 39.56181, "lng": -107.35839}, {"slug": "grand-junction-co-24-12-road", "city": "Grand Junction", "state": "CO", "addr": "582 24 1/2 Rd", "lat": 39.08889, "lng": -108.59831}, {"slug": "greeley", "city": "Greeley", "state": "CO", "addr": "3502 W 29th St", "lat": 40.38744, "lng": -104.73572}, {"slug": "johnstown", "city": "Johnstown", "state": "CO", "addr": "4890 Thompson Parkway", "lat": 40.40659, "lng": -104.98078}, {"slug": "lakewood-co-webster", "city": "Lakewood", "state": "CO", "addr": "2035 S Webster St", "lat": 39.68018, "lng": -105.08082}, {"slug": "littleton-co-s-broadway", "city": "Littleton", "state": "CO", "addr": "7440 S Broadway", "lat": 39.58216, "lng": -104.98797}, {"slug": "longmont-co-hover-rd", "city": "Longmont", "state": "CO", "addr": "1218 S Hover St", "lat": 40.14855, "lng": -105.13}, {"slug": "loveland-co-eisenhower-blvd", "city": "Loveland", "state": "CO", "addr": "1606 W Eisenhower Blvd", "lat": 40.40682, "lng": -105.10046}, {"slug": "montrose-co-wolverine-dr", "city": "Montrose", "state": "CO", "addr": "3841 Wolverine Dr", "lat": 38.44554, "lng": -107.86736}, {"slug": "parker-co", "city": "Parker", "state": "CO", "addr": "18561 E Mainstreet", "lat": 39.51865, "lng": -104.77428}, {"slug": "pueblo-co", "city": "Pueblo", "state": "CO", "addr": "2285 W Pueblo Blvd", "lat": 38.21901, "lng": -104.63728}, {"slug": "rifle-co-airport-rd", "city": "Rifle", "state": "CO", "addr": "600 Airport Rd", "lat": 39.52314, "lng": -107.7718}, {"slug": "thornton", "city": "Thornton", "state": "CO", "addr": "9790 Washington Street", "lat": 39.87493, "lng": -104.9771}, {"slug": "westminster-co-72nd-ave", "city": "Westminster", "state": "CO", "addr": "5330 W 72nd Ave", "lat": 39.82685, "lng": -105.05499}, {"slug": "apopka-fl-semoran-blvd", "city": "Apopka", "state": "FL", "addr": "1616 E Semoran Blvd", "lat": 28.67226, "lng": -81.48026}, {"slug": "arcadia-fl-se-hwy-70", "city": "Arcadia", "state": "FL", "addr": "2455 SE Hwy 70", "lat": 27.20844, "lng": -81.83445}, {"slug": "avon-park-fl-us-hwy-27", "city": "Avon Park", "state": "FL", "addr": "1023 US Hwy 27 N", "lat": 27.60749, "lng": -81.51508}, {"slug": "bartow-fl-n-holland-pkwy", "city": "Bartow", "state": "FL", "addr": "1395 N Holland Pkwy", "lat": 27.9087, "lng": -81.8293}, {"slug": "bonita-springs-fl-saradrienne-ln", "city": "Bonita Springs", "state": "FL", "addr": "11905 Bonita Beach Rd SE", "lat": 26.33082, "lng": -81.75643}, {"slug": "boynton-beach-fl-woolbright-rd", "city": "Boynton Beach", "state": "FL", "addr": "4860 Woolbright Rd", "lat": 26.51165, "lng": -80.12031}, {"slug": "bradenton-fl-64-east", "city": "Bradenton", "state": "FL", "addr": "13020 SR 64 East", "lat": 27.4834, "lng": -82.41245}, {"slug": "bradenton-fl-cortez-rd", "city": "Bradenton", "state": "FL", "addr": "3515 Cortez Rd W", "lat": 27.46203, "lng": -82.59757}, {"slug": "bradenton-fl-fl64e", "city": "Bradenton", "state": "FL", "addr": "4714 E State Road 64", "lat": 27.49755, "lng": -82.50362}, {"slug": "bradenton-fl-ranch-lake-blvd", "city": "Bradenton", "state": "FL", "addr": "5750 Ranch Lake Blvd", "lat": 27.43945, "lng": -82.45765}, {"slug": "tallahassee-fl-wolfpack-way", "city": "Bradfordville", "state": "FL", "addr": "3425 Wolfpack Way", "lat": 30.5678, "lng": -84.21172}, {"slug": "brandon-fl-brandon-blvd", "city": "Brandon", "state": "FL", "addr": "548 E Brandon Blvd", "lat": 27.9381, "lng": -82.2779}, {"slug": "brandon-fl-falkenburg-rd", "city": "Brandon", "state": "FL", "addr": "2470 S Falkenburg Rd", "lat": 27.92644, "lng": -82.33737}, {"slug": "brooksville-fl-cortez-blvd", "city": "Brooksville", "state": "FL", "addr": "12337 Cortez Blvd", "lat": 28.53412, "lng": -82.52029}, {"slug": "brooksville-s-broad-st", "city": "Brooksville", "state": "FL", "addr": "1065 S Broad St", "lat": 28.5437, "lng": -82.40111}, {"slug": "bushnell-fl-w-county-rd-48", "city": "Bushnell", "state": "FL", "addr": "1942 W C 48", "lat": 28.6692, "lng": -82.13637}, {"slug": "cape-coral-fl", "city": "Cape Coral", "state": "FL", "addr": "1607 Cape Coral Parkway E", "lat": 26.56306, "lng": -81.94319}, {"slug": "cape-coral-fl-ne-pine-island", "city": "Cape Coral", "state": "FL", "addr": "2974 NE Pine Island Rd", "lat": 26.68186, "lng": -81.90716}, {"slug": "cape-coral-fl-pine-island-rd", "city": "Cape Coral", "state": "FL", "addr": "309 SW Pine Island Road", "lat": 26.65038, "lng": -81.98031}, {"slug": "cape-coral-skyline-blvd", "city": "Cape Coral", "state": "FL", "addr": "2526 Skyline Blvd", "lat": 26.60504, "lng": -81.99136}, {"slug": "carrollwood-fl-dale-mabry-hwy", "city": "Carrollwood", "state": "FL", "addr": "10902 N Dale Mabry Hwy", "lat": 28.0478, "lng": -82.5051}, {"slug": "casselberry-fl-hwy-17-92", "city": "Casselberry", "state": "FL", "addr": "3920 US Hwy 17-92", "lat": 28.67557, "lng": -81.33752}, {"slug": "clearwater-fl-gulf-to-bay-blvd", "city": "Clearwater", "state": "FL", "addr": "2008 Gulf to Bay Blvd", "lat": 27.96098, "lng": -82.7539}, {"slug": "clermont-fl", "city": "Clermont", "state": "FL", "addr": "1431 Johns Lake Rd", "lat": 28.52677, "lng": -81.73112}, {"slug": "clewiston-fl-sugarland-hwy", "city": "Clewiston", "state": "FL", "addr": "1030 W Sugarland Hwy", "lat": 26.7538, "lng": -80.95085}, {"slug": "cooper-city-university-dr", "city": "Cooper City", "state": "FL", "addr": "3700 University Drive", "lat": 26.0402, "lng": -80.2505}, {"slug": "davenport-fl-posner-blvd", "city": "Davenport", "state": "FL", "addr": "1107 Posner Blvd", "lat": 28.2245, "lng": -81.6442}, {"slug": "daytona-beach-fl-oulet-blvd", "city": "Daytona Beach", "state": "FL", "addr": "1560 Outlet Blvd", "lat": 29.22013, "lng": -81.09663}, {"slug": "deland-fl-summit-oak-pl", "city": "Deland", "state": "FL", "addr": "10 Summit Oak Pl", "lat": 29.05664, "lng": -81.30495}, {"slug": "deltona-fl-howland-blvd", "city": "Deltona", "state": "FL", "addr": "3095 Howland Blvd", "lat": 28.94726, "lng": -81.23965}, {"slug": "destin-fl-hwy98", "city": "Destin", "state": "FL", "addr": "12540 Hwy 98 W", "lat": 30.38571, "lng": -86.38138}, {"slug": "estero-fl", "city": "Estero", "state": "FL", "addr": "10301 Corkscrew Road", "lat": 26.43182, "lng": -81.78545}, {"slug": "estero-fl-murano-del-lago-dr", "city": "Estero", "state": "FL", "addr": "8400 Murano Del Lago Dr", "lat": 26.39223, "lng": -81.80925}, {"slug": "fort-meade-fl-charleston-ave", "city": "Fort Meade", "state": "FL", "addr": "8 N Charleston Ave", "lat": 27.75295, "lng": -81.80113}, {"slug": "fort-myers-fl-cleveland", "city": "Fort Myers", "state": "FL", "addr": "12651 South Cleveland Ave", "lat": 26.55834, "lng": -81.87113}, {"slug": "fort-myers-fl-palm-beach-blvd", "city": "Fort Myers", "state": "FL", "addr": "12001 Palm Beach Blvd", "lat": 26.69977, "lng": -81.75976}, {"slug": "fort-myers-fl-sixmilecypresspkwy", "city": "Fort Myers", "state": "FL", "addr": "9340 Six Mile Cypress Parkway", "lat": 26.60736, "lng": -81.8119}, {"slug": "ft-myers-university-plaza", "city": "Fort Myers", "state": "FL", "addr": "10050 University Plaza Drive", "lat": 26.4915, "lng": -81.78423}, {"slug": "fort-walton-beach-fl", "city": "Fort Walton Beach", "state": "FL", "addr": "206 Green Acres Rd", "lat": 30.4564, "lng": -86.639}, {"slug": "gainesville-fl-sw-35th-blvd", "city": "Gainesville", "state": "FL", "addr": "4036 SW 30th Pl", "lat": 29.62573, "lng": -82.38436}, {"slug": "haines-city-fl-hwy-27", "city": "Haines City", "state": "FL", "addr": "37061 N US Hwy 27", "lat": 28.1391, "lng": -81.63687}, {"slug": "highland-city-fl-clubhouse", "city": "Highland City", "state": "FL", "addr": "4255 Clubhouse Rd", "lat": 27.9672, "lng": -81.8782}, {"slug": "inverness-fl-main-st", "city": "Inverness", "state": "FL", "addr": "1781 W Main St", "lat": 28.8355, "lng": -82.3516}, {"slug": "jacksonville-fl-gate-pkwy", "city": "Jacksonville", "state": "FL", "addr": "7818 Gate Pkwy", "lat": 30.236, "lng": -81.5189}, {"slug": "jacksonville-fl-hodges-blvd", "city": "Jacksonville", "state": "FL", "addr": "4768 Hodges Blvd", "lat": 30.25453, "lng": -81.4673}, {"slug": "jacksonville-fl-hyatt-rd", "city": "Jacksonville", "state": "FL", "addr": "14011 Hyatt Rd", "lat": 30.49127, "lng": -81.62588}, {"slug": "jacksonville-fl-monument-rd", "city": "Jacksonville", "state": "FL", "addr": "101 Monument Rd", "lat": 30.32375, "lng": -81.54634}, {"slug": "jacksonville-fl-parramore-rd", "city": "Jacksonville", "state": "FL", "addr": "7923 Parramore Rd", "lat": 30.2038, "lng": -81.7575}, {"slug": "jensen-beach-fl-nw-federal-hwy", "city": "Jensen Beach", "state": "FL", "addr": "4151 NW Federal Hwy", "lat": 27.2564, "lng": -80.27861}, {"slug": "jupiter-fl-military-trl", "city": "Jupiter", "state": "FL", "addr": "1108 Military Trl", "lat": 26.9204, "lng": -80.10274}, {"slug": "kissimmee-fl-irlo-bronson-memorial-hwy", "city": "Kissimmee", "state": "FL", "addr": "9070 W Irlo Bronson Memorial Hwy", "lat": 28.3462, "lng": -81.65089}, {"slug": "kissimmee-fl-orange-blossom", "city": "Kissimmee", "state": "FL", "addr": "3148 N. Orange Blossom Trail", "lat": 28.34124, "lng": -81.4043}, {"slug": "labelle-fl-lashley-st", "city": "LaBelle", "state": "FL", "addr": "44 Lashley St", "lat": 26.76088, "lng": -81.44834}, {"slug": "lake-city-fl-nw-commons-loop", "city": "Lake City", "state": "FL", "addr": "394 NW Commons Loop", "lat": 30.17986, "lng": -82.66437}, {"slug": "narcoossee-rd-orlando-fl", "city": "Lake Nona", "state": "FL", "addr": "11978 Narcoossee Rd", "lat": 28.39068, "lng": -81.24497}, {"slug": "lake-park-fl-congress-ave", "city": "Lake Park", "state": "FL", "addr": "260 N Congress Ave", "lat": 26.79925, "lng": -80.0844}, {"slug": "lakeland-fl-s-florida-ave", "city": "Lakeland", "state": "FL", "addr": "6400 S. Florida Avenue", "lat": 27.9486, "lng": -81.9691}, {"slug": "lakeland-fl-us-98", "city": "Lakeland", "state": "FL", "addr": "5246 US Hwy 98 N", "lat": 28.1107, "lng": -81.9742}, {"slug": "land-o-lakes-fl-blvd", "city": "Land O' Lakes", "state": "FL", "addr": "7760 Land O' Lakes Blvd", "lat": 28.27071, "lng": -82.47969}, {"slug": "largo-fl", "city": "Largo", "state": "FL", "addr": "3500 E Bay Dr", "lat": 27.91699, "lng": -82.75063}, {"slug": "lecanto-fl-lecanto-hwy", "city": "Lecanto", "state": "FL", "addr": "1712 N Lecanto Hwy", "lat": 28.8885, "lng": -82.487}, {"slug": "leesburg-fl-hwy-441", "city": "Leesburg", "state": "FL", "addr": "9423 US Hwy 441", "lat": 28.82817, "lng": -81.80136}, {"slug": "lehigh-acres-fl-lee-blvd", "city": "Lehigh Acres", "state": "FL", "addr": "2511 Lee Blvd", "lat": 26.61433, "lng": -81.66426}, {"slug": "loxahatchee-groves-southern-blvd", "city": "Loxahatchee Groves", "state": "FL", "addr": "15339 Southern Blvd", "lat": 26.6838, "lng": -80.2881}, {"slug": "lutz-fl-walmart-way", "city": "Lutz", "state": "FL", "addr": "21362 Walmart Way", "lat": 28.1764, "lng": -82.4644}, {"slug": "margate-fl-copans-rd", "city": "Margate", "state": "FL", "addr": "5510 W Copans Rd", "lat": 26.25389, "lng": -80.19964}, {"slug": "melbourne-fl-n-wickham-rd", "city": "Melbourne", "state": "FL", "addr": "4611 N Wickham Rd", "lat": 28.18358, "lng": -80.67133}, {"slug": "middleburg-fl-blanding-blvd", "city": "Middleburg", "state": "FL", "addr": "1767 Blanding Blvd", "lat": 30.1054, "lng": -81.8259}, {"slug": "milton-fl-us-hwy-90", "city": "Milton", "state": "FL", "addr": "6389 US Hwy 90", "lat": 30.61032, "lng": -87.05632}, {"slug": "mt-dora-us-highway-441", "city": "Mt. Dora", "state": "FL", "addr": "18996 US Highway 441", "lat": 28.82341, "lng": -81.64133}, {"slug": "naples-fl-airport-pulling", "city": "Naples", "state": "FL", "addr": "5775 Airport Pulling Rd N", "lat": 26.21639, "lng": -81.76891}, {"slug": "naples-fl-immokalee-rd", "city": "Naples", "state": "FL", "addr": "8940 Sage Ave", "lat": 26.27419, "lng": -81.68417}, {"slug": "naples-fl-tamiami-trl", "city": "Naples", "state": "FL", "addr": "5102 Tamiami Trail East", "lat": 26.10539, "lng": -81.7473}, {"slug": "navarre-fl", "city": "Navarre", "state": "FL", "addr": "8792 Navarre Pkwy", "lat": 30.40376, "lng": -86.85512}, {"slug": "new-smyrna-beach-state-road-44", "city": "New Smyrna Beach", "state": "FL", "addr": "2679 State Road 44", "lat": 29.01349, "lng": -80.97742}, {"slug": "north-port-fl-tuscola-blvd", "city": "North Port", "state": "FL", "addr": "5648 Tuscola Blvd", "lat": 27.04067, "lng": -82.22535}, {"slug": "ocala-fl-silver-springs-blvd", "city": "Ocala", "state": "FL", "addr": "3637 W Silver Springs Blvd", "lat": 29.18696, "lng": -82.18333}, {"slug": "ocala-fl-sw-college-rd", "city": "Ocala", "state": "FL", "addr": "4836 SW College Rd", "lat": 29.1344, "lng": -82.2001}, {"slug": "okeechobee-fl-ne-park-st", "city": "Okeechobee", "state": "FL", "addr": "1225 NE Park St", "lat": 27.24432, "lng": -80.81772}, {"slug": "orlando-fl-east-colonial-dr", "city": "Orlando", "state": "FL", "addr": "13320 East Colonial Dr.", "lat": 28.56461, "lng": -81.18414}, {"slug": "orlando-fl-millenia-blvd", "city": "Orlando", "state": "FL", "addr": "4591 Power Center Ln", "lat": 28.49462, "lng": -81.42198}, {"slug": "ormond-beach-fl-granada-blvd", "city": "Ormond Beach", "state": "FL", "addr": "655 W Granada Blvd", "lat": 29.27955, "lng": -81.07363}, {"slug": "oviedo-fl-mitchell-hammock", "city": "Oviedo", "state": "FL", "addr": "889 W Mitchell Hammock Rd", "lat": 28.65608, "lng": -81.22266}, {"slug": "palm-coast-fl-e-hwy-100", "city": "Palm Coast", "state": "FL", "addr": "5055 E Hwy 100", "lat": 29.47488, "lng": -81.22027}, {"slug": "palmetto-fl-us-301", "city": "Palmetto", "state": "FL", "addr": "1801 US 301 N", "lat": 27.52075, "lng": -82.54573}, {"slug": "panama-city-fl-s-tyndall-pkwy", "city": "Panama City", "state": "FL", "addr": "604 S Tyndall Pkwy", "lat": 30.13685, "lng": -85.5915}, {"slug": "panama-city-beach-fl-panama-city-beach-pkwy", "city": "Panama City Beach", "state": "FL", "addr": "11501 Panama City Beach Pkwy", "lat": 30.19674, "lng": -85.8148}, {"slug": "parrish-fl-us-hwy-301", "city": "Parrish", "state": "FL", "addr": "10824 US Hwy 301 N", "lat": 27.55619, "lng": -82.45273}, {"slug": "pensacola-fl-bayou-blvd", "city": "Pensacola", "state": "FL", "addr": "4400 Bayou Blvd", "lat": 30.46759, "lng": -87.20499}, {"slug": "pensacola-fl-boesch-ln", "city": "Pensacola", "state": "FL", "addr": "8880 Boesch Ln", "lat": 30.5243, "lng": -87.31416}, {"slug": "pensacola-fl-mobile-hwy", "city": "Pensacola", "state": "FL", "addr": "6032 Mobile Hwy", "lat": 30.4627, "lng": -87.3014}, {"slug": "pinellas-park-fl-park-blvd", "city": "Pinellas Park", "state": "FL", "addr": "4702 Park Blvd N", "lat": 27.83878, "lng": -82.69822}, {"slug": "plant-city-n-park-rd-fl", "city": "Plant City", "state": "FL", "addr": "2103 N Park Rd", "lat": 28.03331, "lng": -82.10558}, {"slug": "port-charlotte-el-jobean-rd", "city": "Port Charlotte", "state": "FL", "addr": "1140 El Jobean Rd", "lat": 27.01069, "lng": -82.15064}, {"slug": "port-charlotte-fl", "city": "Port Charlotte", "state": "FL", "addr": "385 Kings Hwy", "lat": 27.02279, "lng": -82.0472}, {"slug": "port-orange-fl-dunlawton", "city": "Port Orange", "state": "FL", "addr": "1744 Dunlawton Avenue", "lat": 29.11121, "lng": -81.02489}, {"slug": "port-richey-fl", "city": "Port Richey", "state": "FL", "addr": "8425 U.S. HWY 19", "lat": 28.28016, "lng": -82.71838}, {"slug": "port-st-lucie-fl-tradition-pkwy", "city": "Port St. Lucie", "state": "FL", "addr": "10770 SW Tradition Pkwy", "lat": 27.26389, "lng": -80.4343}, {"slug": "punta-gorda-loop-road", "city": "Punta Gorda", "state": "FL", "addr": "26440 Jones Loop Rd", "lat": 26.89526, "lng": -82.0104}, {"slug": "riverview-fl-big-bend-rd", "city": "Riverview", "state": "FL", "addr": "10721 Big Bend Rd", "lat": 27.79184, "lng": -82.33113}, {"slug": "riverview-fl-boyette-rd", "city": "Riverview", "state": "FL", "addr": "11620 Boyette Rd", "lat": 27.8541, "lng": -82.3046}, {"slug": "ruskin-fl-30th-st", "city": "Ruskin", "state": "FL", "addr": "547 30th St SE", "lat": 27.71419, "lng": -82.39473}, {"slug": "san-antonio-fl-state-rd-52", "city": "San Antonio", "state": "FL", "addr": "30203 State Rd 52", "lat": 28.32626, "lng": -82.31661}, {"slug": "sanford-fl-orlando-dr", "city": "Sanford", "state": "FL", "addr": "3418 S Orlando Dr", "lat": 28.76462, "lng": -81.28448}, {"slug": "sarasota-fl-cattlemen", "city": "Sarasota", "state": "FL", "addr": "90 Cattlemen Rd", "lat": 27.33611, "lng": -82.45093}, {"slug": "sarasota-fl-tamiami-trl", "city": "Sarasota", "state": "FL", "addr": "7250 S. Tamiami Trail", "lat": 27.24957, "lng": -82.51413}, {"slug": "sarasota-fl-university", "city": "Sarasota", "state": "FL", "addr": "2605 University Parkway", "lat": 27.38961, "lng": -82.51804}, {"slug": "sebring-fl-us-hwy-27", "city": "Sebring", "state": "FL", "addr": "2651 US Hwy 27 S", "lat": 27.47198, "lng": -81.44842}, {"slug": "seminole-fl-park-blvd", "city": "Seminole", "state": "FL", "addr": "10425 Park Blvd", "lat": 27.83997, "lng": -82.78384}, {"slug": "spring-hill-fl-county-line-rd", "city": "Spring Hill", "state": "FL", "addr": "16300 County Line Rd", "lat": 28.4332, "lng": -82.5458}, {"slug": "st-augustine-fl-stratton-blvd", "city": "St. Augustine", "state": "FL", "addr": "2620 Stratton Blvd", "lat": 29.91502, "lng": -81.38656}, {"slug": "st-augustine-hwy-1", "city": "St. Augustine", "state": "FL", "addr": "3433 US Hwy 1", "lat": 29.83115, "lng": -81.32301}, {"slug": "st-cloud-florida-irlo-bronson", "city": "St. Cloud", "state": "FL", "addr": "1050 E Irlo Bronson Hwy", "lat": 28.24538, "lng": -81.25701}, {"slug": "st-johns-fl-fountains-way", "city": "St. Johns", "state": "FL", "addr": "45 Fountains Way", "lat": 30.0676, "lng": -81.4944}, {"slug": "st-petersburg-fl-34th-st", "city": "St. Petersburg", "state": "FL", "addr": "1451 34th St N", "lat": 27.78619, "lng": -82.6789}, {"slug": "st-petersburg-fl-4th-st", "city": "St. Petersburg", "state": "FL", "addr": "9046 4th St N", "lat": 27.85493, "lng": -82.63921}, {"slug": "stuart-fl-kanner-hwy", "city": "Stuart", "state": "FL", "addr": "2501 S Kanner Hwy", "lat": 27.17445, "lng": -80.25224}, {"slug": "tallahassee-fl-executive-center-dr", "city": "Tallahassee", "state": "FL", "addr": "1311 Executive Center Dr", "lat": 30.42668, "lng": -84.23518}, {"slug": "tallahassee-fl-monroe-st", "city": "Tallahassee", "state": "FL", "addr": "2439 N Monroe St", "lat": 30.4736, "lng": -84.29236}, {"slug": "tamarac-fl-w-commercial-blvd", "city": "Tamarac", "state": "FL", "addr": "8251 W. Commercial Blvd", "lat": 26.1942, "lng": -80.26051}, {"slug": "tampa-fl-citrus-park-dr", "city": "Tampa", "state": "FL", "addr": "8410 Citrus Park Dr", "lat": 28.06557, "lng": -82.57745}, {"slug": "tampa-fl-hillsborough", "city": "Tampa", "state": "FL", "addr": "8106 W. Hillsborough Ave", "lat": 27.99619, "lng": -82.57217}, {"slug": "tampa-fl-nebraska", "city": "Tampa", "state": "FL", "addr": "15003 North Nebraska Avenue", "lat": 28.0883, "lng": -82.45097}, {"slug": "the-villages-fl-county-rd-466", "city": "The Villages", "state": "FL", "addr": "3390 Wedgewood Ln", "lat": 28.92782, "lng": -82.01195}, {"slug": "titusville-fl-cheney-highway", "city": "Titusville", "state": "FL", "addr": "2855 Cheney Highway", "lat": 28.5576, "lng": -80.83784}, {"slug": "trinity-fl-fl54", "city": "Trinity", "state": "FL", "addr": "12538 State Road 54", "lat": 28.19076, "lng": -82.60782}, {"slug": "venice-fl-tamiami-trail", "city": "Venice", "state": "FL", "addr": "1735 S Tamiami Trail", "lat": 27.0721, "lng": -82.4224}, {"slug": "venice-fl-times-cir", "city": "Venice", "state": "FL", "addr": "19355 Times Circle", "lat": 27.10506, "lng": -82.38371}, {"slug": "viera-fl-lake-andrew-dr", "city": "Viera", "state": "FL", "addr": "6451 Lake Andrew Dr", "lat": 28.24629, "lng": -80.7294}, {"slug": "wesley-chapel-fl-sun-vista-dr", "city": "Wesley Chapel", "state": "FL", "addr": "2303 Sun Vista Dr", "lat": 28.19113, "lng": -82.39484}, {"slug": "wesley-chapel-fl-wiregrass", "city": "Wesley Chapel", "state": "FL", "addr": "28831 State Rd 56", "lat": 28.1917, "lng": -82.3403}, {"slug": "west-melbourne-palm-bay-rd", "city": "West Melbourne", "state": "FL", "addr": "4355 Norfolk Pkwy", "lat": 28.03617, "lng": -80.66031}, {"slug": "wildwood-fl-sundance-trail", "city": "Wildwood", "state": "FL", "addr": "5327 Sundance Trl", "lat": 28.86596, "lng": -82.01486}, {"slug": "winter-garden-fl-colonial-dr", "city": "Winter Garden", "state": "FL", "addr": "13649 W Colonial Dr", "lat": 28.5516, "lng": -81.58582}, {"slug": "winter-haven-cypress-gardens-blvd", "city": "Winter Haven", "state": "FL", "addr": "888 Cypress Gardens Blvd", "lat": 28.00361, "lng": -81.71524}, {"slug": "yulee-fl-state-road", "city": "Yulee", "state": "FL", "addr": "463731 SR 200", "lat": 30.6286, "lng": -81.5548}, {"slug": "zephyrhills-fl-gall-blvd", "city": "Zephyrhills", "state": "FL", "addr": "6386 Gall Blvd", "lat": 28.25039, "lng": -82.18764}, {"slug": "acworth-ga-hwy-92", "city": "Acworth", "state": "GA", "addr": "1275 Hwy 92", "lat": 34.0848, "lng": -84.6554}, {"slug": "bethlehem-ga-loganville-hwy", "city": "Bethlehem", "state": "GA", "addr": "819 Loganville Hwy", "lat": 33.94981, "lng": -83.75137}, {"slug": "braselton-ga-old-winder", "city": "Braselton", "state": "GA", "addr": "2660 Old Winder Hwy", "lat": 34.11971, "lng": -83.82639}, {"slug": "buford-ga-buford-dr", "city": "Buford", "state": "GA", "addr": "2924 Buford Dr", "lat": 34.05347, "lng": -83.99523}, {"slug": "cartersville-ga-hwy-20", "city": "Cartersville", "state": "GA", "addr": "4000 GA-20", "lat": 34.20676, "lng": -84.79665}, {"slug": "columbus-midland-commons-blvd", "city": "Columbus", "state": "GA", "addr": "6851 Midland Commons Blvd", "lat": 32.5437, "lng": -84.8756}, {"slug": "commerce-ga-hwy-441", "city": "Commerce", "state": "GA", "addr": "110 Grove Creek Point", "lat": 34.2605, "lng": -83.46519}, {"slug": "cumming-ga-bethelview-rd", "city": "Cumming", "state": "GA", "addr": "5512 Bethelview Rd", "lat": 34.17199, "lng": -84.18669}, {"slug": "dawsonville-ga-center-ln", "city": "Dawsonville", "state": "GA", "addr": "252 S 400 Center Ln", "lat": 34.36094, "lng": -84.04151}, {"slug": "gainesville-ga-dawsonville-hwy", "city": "Gainesville", "state": "GA", "addr": "1260 NW Dawsonville Hwy", "lat": 34.30466, "lng": -83.85971}, {"slug": "grovetown-ga-gateway-blvd", "city": "Grovetown", "state": "GA", "addr": "4020 Gateway Blvd", "lat": 33.47953, "lng": -82.19655}, {"slug": "canton-ga-hickory-flat-hwy", "city": "Hickory Flat-Canton", "state": "GA", "addr": "6778 Hickory Flat Hwy", "lat": 34.17031, "lng": -84.41484}, {"slug": "jasper-ga-noah-dr", "city": "Jasper", "state": "GA", "addr": "955 Noah Dr", "lat": 34.47283, "lng": -84.46194}, {"slug": "jefferson-ga-marketplace-wy", "city": "Jefferson", "state": "GA", "addr": "134 Market Place Way", "lat": 34.11294, "lng": -83.59959}, {"slug": "johns-creek-ga-peachtree", "city": "Johns Creek", "state": "GA", "addr": "3135 Peachtree Pkwy", "lat": 34.08687, "lng": -84.16324}, {"slug": "kennesaw-ga-due-west-road", "city": "Kennesaw", "state": "GA", "addr": "2460 Kennesaw Due West Rd", "lat": 34.01414, "lng": -84.61511}, {"slug": "lawrenceville-ga-scenic-hwy-sw", "city": "Lawrenceville", "state": "GA", "addr": "1133 Scenic Hwy S", "lat": 33.90647, "lng": -84.00413}, {"slug": "macon-ga-northside-dr", "city": "Macon", "state": "GA", "addr": "3710 Northside Dr", "lat": 32.89631, "lng": -83.69097}, {"slug": "mcdonough-ga-hwy-81", "city": "McDonough", "state": "GA", "addr": "90 Hwy 81 W", "lat": 33.42653, "lng": -84.18467}, {"slug": "newnan-ga-newnan-crossing-byp", "city": "Newnan", "state": "GA", "addr": "311 Newnan Crossing Bypass", "lat": 33.39011, "lng": -84.7619}, {"slug": "pooler-ga-tanger-blvd", "city": "Pooler", "state": "GA", "addr": "121 Tanger Outlet Blvd", "lat": 32.13655, "lng": -81.2466}, {"slug": "rockmart-ga-nathan-dean-pkwy", "city": "Rockmart", "state": "GA", "addr": "1939 Nathan Dean Pkwy", "lat": 34.0108, "lng": -85.02982}, {"slug": "savannah-ga-montgomery-cross-rd", "city": "Savannah", "state": "GA", "addr": "333 W Montgomery Crossroad", "lat": 32.00108, "lng": -81.13628}, {"slug": "sugar-hill-ga-peachtree-industrial", "city": "Sugar Hill", "state": "GA", "addr": "230 Peachtree Industrial Blvd", "lat": 34.08027, "lng": -84.05824}, {"slug": "valdosta-ga-n-valdosta-rd", "city": "Valdosta", "state": "GA", "addr": "4135 N Valdosta Rd", "lat": 30.89657, "lng": -83.32779}, {"slug": "warner-robins-ga-hwy-96", "city": "Warner Robins", "state": "GA", "addr": "780 Hwy 96", "lat": 32.55223, "lng": -83.66133}, {"slug": "woodstock-ga-hwy-92", "city": "Woodstock", "state": "GA", "addr": "11799 Hwy 92", "lat": 34.0885, "lng": -84.4912}, {"slug": "altoona", "city": "Altoona", "state": "IA", "addr": "2535 Adventureland Drive", "lat": 41.65979, "lng": -93.49285}, {"slug": "ames", "city": "Ames", "state": "IA", "addr": "525 Gilchrist Avenue", "lat": 42.02383, "lng": -93.61874}, {"slug": "ankeny", "city": "Ankeny", "state": "IA", "addr": "2305 S. E. Delaware Ave.", "lat": 41.70768, "lng": -93.5806}, {"slug": "ankeny-ia-nw36th-st", "city": "Ankeny", "state": "IA", "addr": "255 NW 36th St", "lat": 41.76043, "lng": -93.60406}, {"slug": "bettendorf-ia", "city": "Bettendorf", "state": "IA", "addr": "2312 Spruce Hills Drive", "lat": 41.54972, "lng": -90.5016}, {"slug": "burlington-ia", "city": "Burlington", "state": "IA", "addr": "919 Lawrence Drive", "lat": 40.79896, "lng": -91.14086}, {"slug": "carroll-ia", "city": "Carroll", "state": "IA", "addr": "405 W US Highway 30", "lat": 42.0666, "lng": -94.872}, {"slug": "cedar-falls-ia", "city": "Cedar Falls", "state": "IA", "addr": "401 Viking Plaza Drive", "lat": 42.48351, "lng": -92.44234}, {"slug": "cedar-rapids", "city": "Cedar Rapids", "state": "IA", "addr": "2405 Edgewood Road SW", "lat": 41.95463, "lng": -91.71552}, {"slug": "cedar-rapids-ia-earhart-ln-sw", "city": "Cedar Rapids", "state": "IA", "addr": "9060 Earhart Ln SW", "lat": 41.89006, "lng": -91.66811}, {"slug": "clear-lake", "city": "Clear Lake", "state": "IA", "addr": "1204 N. 25th St.", "lat": 43.14733, "lng": -93.35879}, {"slug": "clinton", "city": "Clinton", "state": "IA", "addr": "2625 Lincoln Way", "lat": 41.81477, "lng": -90.24895}, {"slug": "coralville", "city": "Coralville", "state": "IA", "addr": "2591 Heartland Place", "lat": 41.70015, "lng": -91.60919}, {"slug": "council-bluffs", "city": "Council Bluffs", "state": "IA", "addr": "3245 South 24th Street", "lat": 41.22964, "lng": -95.87861}, {"slug": "davenport-jersey", "city": "Davenport", "state": "IA", "addr": "5320 Jersey Ridge Road", "lat": 41.57566, "lng": -90.54236}, {"slug": "davenport-kimberly-road", "city": "Davenport", "state": "IA", "addr": "3400 W. Kimberly Road", "lat": 41.56086, "lng": -90.62643}, {"slug": "decorah", "city": "Decorah", "state": "IA", "addr": "904 Short Street", "lat": 43.29229, "lng": -91.79694}, {"slug": "des-moines", "city": "Des Moines", "state": "IA", "addr": "5941 SE 14th Street", "lat": 41.53177, "lng": -93.59601}, {"slug": "dubuque", "city": "Dubuque", "state": "IA", "addr": "4800 Asbury Rd.", "lat": 42.51588, "lng": -90.74187}, {"slug": "fort-dodge", "city": "Fort Dodge", "state": "IA", "addr": "3048 5th Ave. South", "lat": 42.50177, "lng": -94.15353}, {"slug": "grimes-ia-1st-st", "city": "Grimes", "state": "IA", "addr": "1601 E 1st St", "lat": 41.68916, "lng": -93.77726}, {"slug": "hiawatha", "city": "Hiawatha", "state": "IA", "addr": "1005 N. Center Point Rd.", "lat": 42.04828, "lng": -91.68318}, {"slug": "iowa-city-ia", "city": "Iowa City", "state": "IA", "addr": "710 Highway 1 West", "lat": 41.64811, "lng": -91.54938}, {"slug": "leclaire-ia-mississippi-view-ct", "city": "LeClaire", "state": "IA", "addr": "949 Mississippi View Court", "lat": 41.5875, "lng": -90.3617}, {"slug": "marion", "city": "Marion", "state": "IA", "addr": "1375 Red Fox Way", "lat": 42.03856, "lng": -91.55118}, {"slug": "marshalltown", "city": "Marshalltown", "state": "IA", "addr": "16 Iowa Avenue West", "lat": 42.00622, "lng": -92.9146}, {"slug": "mason-city", "city": "Mason City", "state": "IA", "addr": "551 S. Monroe Avenue", "lat": 43.14682, "lng": -93.20831}, {"slug": "muscatine", "city": "Muscatine", "state": "IA", "addr": "3604 University Drive", "lat": 41.45988, "lng": -91.01881}, {"slug": "newton", "city": "Newton", "state": "IA", "addr": "1650 W. 19th Street S.", "lat": 41.68488, "lng": -93.07867}, {"slug": "north-liberty-ia-lininger-ln", "city": "North Liberty", "state": "IA", "addr": "2301 Lininger Ln", "lat": 41.7529, "lng": -91.6356}, {"slug": "norwalk-ia-hughes-dr", "city": "Norwalk", "state": "IA", "addr": "1801 Hughes Dr", "lat": 41.48441, "lng": -93.67349}, {"slug": "ottumwa-ia-venture", "city": "Ottumwa", "state": "IA", "addr": "1801 Venture Drive", "lat": 41.01627, "lng": -92.45264}, {"slug": "pella-ia", "city": "Pella", "state": "IA", "addr": "1512 Washington Street", "lat": 41.41046, "lng": -92.93182}, {"slug": "sioux-center", "city": "Sioux Center", "state": "IA", "addr": "1913 S. Main Ave", "lat": 43.05702, "lng": -96.1776}, {"slug": "sioux-city", "city": "Sioux City", "state": "IA", "addr": "3102 Singing Hills Boulevard", "lat": 42.43523, "lng": -96.36745}, {"slug": "sioux-city-ia-hamilton", "city": "Sioux City", "state": "IA", "addr": "2420 Hamilton Blvd", "lat": 42.51597, "lng": -96.41629}, {"slug": "urbandale", "city": "Urbandale", "state": "IA", "addr": "8660 Plum Drive", "lat": 41.64818, "lng": -93.73852}, {"slug": "waterloo", "city": "Waterloo", "state": "IA", "addr": "209 E. Tower Park Drive", "lat": 42.45668, "lng": -92.35265}, {"slug": "waukee-ia-hickman-rd", "city": "Waukee", "state": "IA", "addr": "455 E Hickman Rd", "lat": 41.61559, "lng": -93.86307}, {"slug": "west-des-moines-22nd", "city": "West Des Moines", "state": "IA", "addr": "1820 22nd Street", "lat": 41.59937, "lng": -93.73693}, {"slug": "west-des-moines-jordan", "city": "West Des Moines", "state": "IA", "addr": "1101 Jordan Creek Parkway", "lat": 41.58604, "lng": -93.80807}, {"slug": "ammon-id-25th-east", "city": "Ammon", "state": "ID", "addr": "3701 E 25th S", "lat": 43.4644, "lng": -111.98367}, {"slug": "idaho-falls-id-pancheri-dr", "city": "Idaho Falls", "state": "ID", "addr": "946 Pancheri Dr", "lat": 43.48877, "lng": -112.05157}, {"slug": "meridian-id-ustick-rd", "city": "Meridian", "state": "ID", "addr": "3494 E Tecate Ln", "lat": 43.63351, "lng": -116.35098}, {"slug": "twin-falls-id", "city": "Twin Falls", "state": "ID", "addr": "163 Pole Line Rd", "lat": 42.59225, "lng": -114.47786}, {"slug": "addison", "city": "Addison", "state": "IL", "addr": "1347 W. Lake Street", "lat": 41.94443, "lng": -88.02151}, {"slug": "antioch", "city": "Antioch", "state": "IL", "addr": "451 East Route 173", "lat": 42.46682, "lng": -88.06572}, {"slug": "arlington-heights", "city": "Arlington Heights", "state": "IL", "addr": "2060 Northwest Hwy", "lat": 42.07291, "lng": -87.95677}, {"slug": "aurora", "city": "Aurora", "state": "IL", "addr": "509 South Route 59", "lat": 41.74835, "lng": -88.20668}, {"slug": "bartlett-il-route-59", "city": "Bartlett", "state": "IL", "addr": "1430 S Illinois Route 59", "lat": 41.95345, "lng": -88.20604}, {"slug": "batavia-il-randall-rd", "city": "Batavia", "state": "IL", "addr": "470 N Randall Rd", "lat": 41.85801, "lng": -88.33987}, {"slug": "belvidere", "city": "Belvidere", "state": "IL", "addr": "1635 Big Thunder Blvd.", "lat": 42.27241, "lng": -88.85802}, {"slug": "berwyn", "city": "Berwyn", "state": "IL", "addr": "6943 W. Roosevelt Road", "lat": 41.86495, "lng": -87.79862}, {"slug": "bloomingdale-il-schick-rd", "city": "Bloomingdale", "state": "IL", "addr": "455 W Schick Rd", "lat": 41.95352, "lng": -88.12262}, {"slug": "bloomington-hershey", "city": "Bloomington", "state": "IL", "addr": "901 Hershey Road", "lat": 40.48651, "lng": -88.94266}, {"slug": "bloomington-market", "city": "Bloomington", "state": "IL", "addr": "1807 W. Market Street", "lat": 40.48446, "lng": -89.02113}, {"slug": "bolingbrook", "city": "Bolingbrook", "state": "IL", "addr": "250 N. Bolingbrook Drive", "lat": 41.70301, "lng": -88.06783}, {"slug": "bourbonnais", "city": "Bourbonnais", "state": "IL", "addr": "983 North Convent Street", "lat": 41.16966, "lng": -87.87608}, {"slug": "bradley-il-route-50", "city": "Bradley", "state": "IL", "addr": "2061 N State Route 50", "lat": 41.18964, "lng": -87.85122}, {"slug": "bridgeview", "city": "Bridgeview", "state": "IL", "addr": "9229 S Harlem Ave", "lat": 41.72408, "lng": -87.79814}, {"slug": "buffalo-grove", "city": "Buffalo Grove", "state": "IL", "addr": "450 McHenry Road", "lat": 42.16121, "lng": -87.96219}, {"slug": "carbondale-il-reed-station-rd", "city": "Carbondale", "state": "IL", "addr": "2401 Reed Station Pkwy", "lat": 37.74401, "lng": -89.16029}, {"slug": "carol-stream", "city": "Carol Stream", "state": "IL", "addr": "290 Schmale Road", "lat": 41.89631, "lng": -88.10292}, {"slug": "carpentersville", "city": "Carpentersville", "state": "IL", "addr": "8000 Miller Road", "lat": 42.1219, "lng": -88.33706}, {"slug": "champaign-marketview", "city": "Champaign", "state": "IL", "addr": "903 West Marketview", "lat": 40.1378, "lng": -88.25967}, {"slug": "champaign-neil", "city": "Champaign", "state": "IL", "addr": "2302 S. Neil Street", "lat": 40.08545, "lng": -88.24614}, {"slug": "chicago-il-3355-s-martin-luther-king-dr", "city": "Chicago", "state": "IL", "addr": "3355 S Martin Luther King Dr", "lat": 41.83331, "lng": -87.61643}, {"slug": "chicago-il-cicero-ave", "city": "Chicago", "state": "IL", "addr": "6541 S Cicero Ave", "lat": 41.7737, "lng": -87.74183}, {"slug": "chicago-il-doty-ave", "city": "Chicago", "state": "IL", "addr": "11050 S Doty Ave W", "lat": 41.6932, "lng": -87.6014}, {"slug": "chicago-il-montrose-ave", "city": "Chicago", "state": "IL", "addr": "1819 W Montrose Ave", "lat": 41.9614, "lng": -87.6754}, {"slug": "chicago-il-w-irving-park-rd", "city": "Chicago", "state": "IL", "addr": "4939 W Irving Park Rd", "lat": 41.95311, "lng": -87.75158}, {"slug": "chicago-jpstc-w-chicago-ave", "city": "Chicago", "state": "IL", "addr": "4347 W Chicago Avenue", "lat": 41.895, "lng": -87.73511}, {"slug": "chicago-w-peterson-ave", "city": "Chicago", "state": "IL", "addr": "6012 N Albany Ave", "lat": 41.9908, "lng": -87.7071}, {"slug": "collinsville", "city": "Collinsville", "state": "IL", "addr": "100 United Drive", "lat": 38.68887, "lng": -90.00968}, {"slug": "crestwood-il", "city": "Crestwood", "state": "IL", "addr": "13300 Cicero Ave", "lat": 41.65031, "lng": -87.73884}, {"slug": "crete", "city": "Crete", "state": "IL", "addr": "23180 Volbrecht Road", "lat": 41.46872, "lng": -87.5759}, {"slug": "crystal-lake", "city": "Crystal Lake", "state": "IL", "addr": "400 Pingree Road", "lat": 42.22946, "lng": -88.29697}, {"slug": "danville-il", "city": "Danville", "state": "IL", "addr": "3210 North Vermilion Street", "lat": 40.17576, "lng": -87.63055}, {"slug": "darien", "city": "Darien", "state": "IL", "addr": "541 Plainfield Road", "lat": 41.75442, "lng": -87.9596}, {"slug": "dekalb-il", "city": "DeKalb", "state": "IL", "addr": "1262 W Lincoln Hwy", "lat": 41.93039, "lng": -88.7774}, {"slug": "decatur-aldi", "city": "Decatur", "state": "IL", "addr": "4850 E. Aldi Drive", "lat": 39.81775, "lng": -88.88021}, {"slug": "decatur-water-street", "city": "Decatur", "state": "IL", "addr": "2994 N Water Street", "lat": 39.87629, "lng": -88.95445}, {"slug": "diamond-il-e-division-st", "city": "Diamond", "state": "IL", "addr": "2701 E Division St", "lat": 41.28807, "lng": -88.24626}, {"slug": "dixon", "city": "Dixon", "state": "IL", "addr": "1317 N. Galena Avenue", "lat": 41.86112, "lng": -89.49873}, {"slug": "downers-grove", "city": "Downers Grove", "state": "IL", "addr": "2500 West Ogden Ave", "lat": 41.8056, "lng": -88.04639}, {"slug": "east-peoria", "city": "East Peoria", "state": "IL", "addr": "901 Camp Street", "lat": 40.68055, "lng": -89.58817}, {"slug": "edwardsville", "city": "Edwardsville", "state": "IL", "addr": "6724 Old Troy Rd.", "lat": 38.78081, "lng": -89.94801}, {"slug": "effingham", "city": "Effingham", "state": "IL", "addr": "1510 W. Fayette Avenue", "lat": 39.12128, "lng": -88.5628}, {"slug": "elgin-il-mclean-blvd", "city": "Elgin", "state": "IL", "addr": "1175 N McLean Blvd", "lat": 42.06224, "lng": -88.31506}, {"slug": "elmhurst-il-n-york-st", "city": "Elmhurst", "state": "IL", "addr": "436 N York St", "lat": 41.91133, "lng": -87.94025}, {"slug": "elmwood-park-il-w-grand-ave", "city": "Elmwood Park", "state": "IL", "addr": "7542 W Grand Ave", "lat": 41.92584, "lng": -87.8157}, {"slug": "evergreen-park-il", "city": "Evergreen Park", "state": "IL", "addr": "9515 S. Kedzie Ave", "lat": 41.71988, "lng": -87.7014}, {"slug": "fox-lake-il-hwy-12", "city": "Fox Lake", "state": "IL", "addr": "100 S US Hwy 12", "lat": 42.38991, "lng": -88.18104}, {"slug": "fox-river-grove-il-northwest-hwy", "city": "Fox River Grove", "state": "IL", "addr": "514 Northwest Hwy", "lat": 42.19648, "lng": -88.21539}, {"slug": "frankfort", "city": "Frankfort", "state": "IL", "addr": "20592 S La Grange Rd", "lat": 41.51717, "lng": -87.85055}, {"slug": "franklin-park", "city": "Franklin Park", "state": "IL", "addr": "2751 Rose Street", "lat": 41.9287, "lng": -87.86443}, {"slug": "freeport", "city": "Freeport", "state": "IL", "addr": "1690 Dirck Drive", "lat": 42.28067, "lng": -89.63441}, {"slug": "galena", "city": "Galena", "state": "IL", "addr": "11371 Oldenburg Lane", "lat": 42.43622, "lng": -90.45033}, {"slug": "galesburg-il-n-henderson-st", "city": "Galesburg", "state": "IL", "addr": "1330 N Henderson St", "lat": 40.9639, "lng": -90.3838}, {"slug": "geneseo", "city": "Geneseo", "state": "IL", "addr": "1275 S Oakwood Ave", "lat": 41.43493, "lng": -90.15857}, {"slug": "glenview-il-waukegan-rd", "city": "Glenview", "state": "IL", "addr": "1727 Waukegan Rd", "lat": 42.08666, "lng": -87.7977}, {"slug": "grayslake", "city": "Grayslake", "state": "IL", "addr": "1239 N. Route 83", "lat": 42.36603, "lng": -88.04179}, {"slug": "gurnee", "city": "Gurnee", "state": "IL", "addr": "1505 Nations Drive", "lat": 42.3811, "lng": -87.94093}, {"slug": "harvard-il-division-st", "city": "Harvard", "state": "IL", "addr": "1060 S Division St", "lat": 42.40497, "lng": -88.61277}, {"slug": "harwood-heights-il-n-harlem-ave", "city": "Harwood Heights", "state": "IL", "addr": "4538 N Harlem Ave", "lat": 41.96302, "lng": -87.80766}, {"slug": "hoffman-estates-il-hoffman-blvd", "city": "Hoffman Estates", "state": "IL", "addr": "4635 Hoffman Blvd", "lat": 42.06903, "lng": -88.19402}, {"slug": "homer-glen-il-143rd", "city": "Homer Glen", "state": "IL", "addr": "12712 W 143rd St", "lat": 41.6295, "lng": -87.9294}, {"slug": "homewood", "city": "Homewood", "state": "IL", "addr": "850 W. 183rd Street", "lat": 41.55801, "lng": -87.63818}, {"slug": "huntley", "city": "Huntley", "state": "IL", "addr": "12950 Route 47", "lat": 42.14449, "lng": -88.43214}, {"slug": "island-lake", "city": "Island Lake", "state": "IL", "addr": "203 E. State Rd.", "lat": 42.27145, "lng": -88.19638}, {"slug": "joliet", "city": "Joliet", "state": "IL", "addr": "1500 Illinois Hwy 59", "lat": 41.54879, "lng": -88.19895}, {"slug": "joliet-il-larkin-ave", "city": "Joliet", "state": "IL", "addr": "219 S. Larkin Ave", "lat": 41.5179, "lng": -88.12517}, {"slug": "lake-zurich", "city": "Lake Zurich", "state": "IL", "addr": "645 N. Rand Road", "lat": 42.20736, "lng": -88.11245}, {"slug": "lake-in-the-hills", "city": "Lake in the Hills", "state": "IL", "addr": "251 N Randall Rd", "lat": 42.17864, "lng": -88.33479}, {"slug": "lansing-il", "city": "Lansing", "state": "IL", "addr": "17010 Torrence Avenue", "lat": 41.58617, "lng": -87.55997}, {"slug": "libertyville", "city": "Libertyville", "state": "IL", "addr": "803 E. Park Avenue", "lat": 42.28144, "lng": -87.93952}, {"slug": "lincoln-il", "city": "Lincoln", "state": "IL", "addr": "2530 Woodlawn Road", "lat": 40.15852, "lng": -89.40257}, {"slug": "lincolnshire-il-milwaukee-ave", "city": "Lincolnshire", "state": "IL", "addr": "405 Milwaukee Ave", "lat": 42.20002, "lng": -87.93222}, {"slug": "lockport-il", "city": "Lockport", "state": "IL", "addr": "15940 South Farrell Road", "lat": 41.59661, "lng": -88.02711}, {"slug": "lombard", "city": "Lombard", "state": "IL", "addr": "1155 S. Main Street", "lat": 41.86131, "lng": -88.01694}, {"slug": "lyons", "city": "Lyons", "state": "IL", "addr": "8211 W. Ogden Avenue", "lat": 41.81589, "lng": -87.82643}, {"slug": "mahomet-il-patton-dr", "city": "Mahomet", "state": "IL", "addr": "2006 Patton Dr", "lat": 40.18421, "lng": -88.36649}, {"slug": "marion-il-blue-heron-dr", "city": "Marion", "state": "IL", "addr": "2605 Blue Heron Dr", "lat": 37.74511, "lng": -88.96113}, {"slug": "matteson", "city": "Matteson", "state": "IL", "addr": "20716 Cicero Ave", "lat": 41.51238, "lng": -87.73319}, {"slug": "mchenry", "city": "McHenry", "state": "IL", "addr": "1101 Adams Drive", "lat": 42.34303, "lng": -88.2497}, {"slug": "minooka", "city": "Minooka", "state": "IL", "addr": "2063 Ridge Road", "lat": 41.42172, "lng": -88.27077}, {"slug": "moline", "city": "Moline", "state": "IL", "addr": "4011 38th Avenue", "lat": 41.47261, "lng": -90.47728}, {"slug": "monee-il", "city": "Monee", "state": "IL", "addr": "5871 W Monee Manhattan Rd", "lat": 41.42644, "lng": -87.75359}, {"slug": "morris", "city": "Morris", "state": "IL", "addr": "1919 N. Division Street", "lat": 41.38227, "lng": -88.42138}, {"slug": "morton", "city": "Morton", "state": "IL", "addr": "121 East Courtland Street", "lat": 40.62905, "lng": -89.46377}, {"slug": "morton-grove", "city": "Morton Grove", "state": "IL", "addr": "7310 Dempster", "lat": 42.04113, "lng": -87.80979}, {"slug": "mt-vernon-il-veterans-memorial", "city": "Mount Vernon", "state": "IL", "addr": "1105 S 42nd St", "lat": 38.30185, "lng": -88.94269}, {"slug": "mt-prospect", "city": "Mt. Prospect", "state": "IL", "addr": "1501 W. Dempster Street", "lat": 42.03649, "lng": -87.95866}, {"slug": "mundelein", "city": "Mundelein", "state": "IL", "addr": "220 Oak Creek Plaza", "lat": 42.24018, "lng": -87.98774}, {"slug": "naperville-il-naper-blvd", "city": "Naperville", "state": "IL", "addr": "1515 N Naper Blvd", "lat": 41.79739, "lng": -88.12032}, {"slug": "new-lenox", "city": "New Lenox", "state": "IL", "addr": "421 E. Lincoln Highway", "lat": 41.51274, "lng": -87.95587}, {"slug": "north-aurora", "city": "North Aurora", "state": "IL", "addr": "411 S. Lincolnway St", "lat": 41.79038, "lng": -88.32146}, {"slug": "northbrook-il-dundee-rd", "city": "Northbrook", "state": "IL", "addr": "4105 Dundee Rd", "lat": 42.1381, "lng": -87.8819}, {"slug": "ofallon-il", "city": "O'Fallon", "state": "IL", "addr": "1702 W. Highway 50", "lat": 38.59301, "lng": -89.95753}, {"slug": "oak-forest-il-159st", "city": "Oak Forest", "state": "IL", "addr": "5410 W. 159th St.", "lat": 41.60352, "lng": -87.75153}, {"slug": "oak-lawn-il-cicero-ave", "city": "Oak Lawn", "state": "IL", "addr": "10745 S Cicero Ave", "lat": 41.69671, "lng": -87.73938}, {"slug": "orland-park", "city": "Orland Park", "state": "IL", "addr": "9130 159th Street", "lat": 41.60188, "lng": -87.842}, {"slug": "oswego", "city": "Oswego", "state": "IL", "addr": "2781 Route 34", "lat": 41.70086, "lng": -88.31514}, {"slug": "ottawa", "city": "Ottawa", "state": "IL", "addr": "3001 Fairfield Lane", "lat": 41.37358, "lng": -88.83527}, {"slug": "palatine", "city": "Palatine", "state": "IL", "addr": "1765 N. Rand Road", "lat": 42.14272, "lng": -88.02452}, {"slug": "pekin", "city": "Pekin", "state": "IL", "addr": "3500 Court Street", "lat": 40.54274, "lng": -89.59852}, {"slug": "peoria-holiday", "city": "Peoria", "state": "IL", "addr": "5019 West Holiday Drive", "lat": 40.77509, "lng": -89.67245}, {"slug": "peoria-il-n-centerway-dr", "city": "Peoria", "state": "IL", "addr": "10500 N Centerway Dr", "lat": 40.81653, "lng": -89.61389}, {"slug": "peoria-university", "city": "Peoria", "state": "IL", "addr": "4612 N. University Ave.", "lat": 40.74398, "lng": -89.61191}, {"slug": "peru", "city": "Peru", "state": "IL", "addr": "1600 Midtown Road", "lat": 41.34722, "lng": -89.12422}, {"slug": "plainfield-il", "city": "Plainfield", "state": "IL", "addr": "13449 S. Illinois Route 59", "lat": 41.63768, "lng": -88.20226}, {"slug": "plano-il-lakeside-rd", "city": "Plano", "state": "IL", "addr": "6400 Lakeside Road", "lat": 41.65535, "lng": -88.56105}, {"slug": "princeton", "city": "Princeton", "state": "IL", "addr": "224 Ace Road", "lat": 41.39489, "lng": -89.46427}, {"slug": "quincy-il", "city": "Quincy", "state": "IL", "addr": "2442 Broadway Street", "lat": 39.93505, "lng": -91.37594}, {"slug": "rantoul-il-champaign-ave", "city": "Rantoul", "state": "IL", "addr": "640 W Champaign Ave", "lat": 40.30863, "lng": -88.172}, {"slug": "rochelle", "city": "Rochelle", "state": "IL", "addr": "1060 Dement Road", "lat": 41.93173, "lng": -89.03493}, {"slug": "rock-falls", "city": "Rock Falls", "state": "IL", "addr": "1901 Harley Davidson Dr.", "lat": 41.76297, "lng": -89.68898}, {"slug": "rockford-benington", "city": "Rockford", "state": "IL", "addr": "1224 Bennington Road", "lat": 42.31781, "lng": -89.07891}, {"slug": "rockford-phelps", "city": "Rockford", "state": "IL", "addr": "236 North Phelps Avenue", "lat": 42.2674, "lng": -89.00549}, {"slug": "rockford-riverside", "city": "Rockford", "state": "IL", "addr": "6727 E Riverside Blvd", "lat": 42.31812, "lng": -88.98515}, {"slug": "rockford-wansford", "city": "Rockford", "state": "IL", "addr": "5610 Wansford Way", "lat": 42.23788, "lng": -89.00738}, {"slug": "romeoville", "city": "Romeoville", "state": "IL", "addr": "485 N. Weber Road", "lat": 41.64249, "lng": -88.12267}, {"slug": "roscoe", "city": "Roscoe", "state": "IL", "addr": "9779 N. Second Street", "lat": 42.40195, "lng": -89.01033}, {"slug": "rosemont", "city": "Rosemont", "state": "IL", "addr": "7050 Mannheim Road", "lat": 42.0079, "lng": -87.88573}, {"slug": "schaumburg-algonquin", "city": "Schaumburg", "state": "IL", "addr": "1410 E. Algonquin Rd", "lat": 42.06858, "lng": -88.04279}, {"slug": "schaumburg-wise", "city": "Schaumburg", "state": "IL", "addr": "1800 Wise Road", "lat": 42.00415, "lng": -88.12441}, {"slug": "silvis-il-22nd-ave", "city": "Silvis", "state": "IL", "addr": "608 22nd Ave", "lat": 41.48798, "lng": -90.42017}, {"slug": "skokie-il-skokie-blvd", "city": "Skokie", "state": "IL", "addr": "9455 N Skokie Blvd", "lat": 42.05281, "lng": -87.7439}, {"slug": "south-elgin", "city": "South Elgin", "state": "IL", "addr": "280 Randall Road", "lat": 41.98923, "lng": -88.34283}, {"slug": "springfield-dirksen-pkwy", "city": "Springfield", "state": "IL", "addr": "2540 N. Dirksen Parkway", "lat": 39.83811, "lng": -89.60373}, {"slug": "springfield-wabash", "city": "Springfield", "state": "IL", "addr": "4400 Wabash Avenue", "lat": 39.7558, "lng": -89.73254}, {"slug": "st-charles-il", "city": "St. Charles", "state": "IL", "addr": "4068 East Main Street", "lat": 41.92201, "lng": -88.25533}, {"slug": "st-charles-il-randall-rd", "city": "St. Charles", "state": "IL", "addr": "111 S Randall Rd", "lat": 41.91075, "lng": -88.3408}, {"slug": "sugar-grove-il-sugar-grove-pkwy", "city": "Sugar Grove", "state": "IL", "addr": "412 N Sugar Grove Pkwy", "lat": 41.77291, "lng": -88.44353}, {"slug": "sycamore", "city": "Sycamore", "state": "IL", "addr": "1200 De Kalb Avenue", "lat": 41.98146, "lng": -88.70432}, {"slug": "tilton-il-georgetown-rd", "city": "Tilton", "state": "IL", "addr": "1506 Georgetown Rd", "lat": 40.1006, "lng": -87.63628}, {"slug": "tinley-park", "city": "Tinley Park", "state": "IL", "addr": "18248 Sayre Avenue", "lat": 41.55917, "lng": -87.78878}, {"slug": "urbana-il-w-university-ave", "city": "Urbana", "state": "IL", "addr": "201 W University Ave", "lat": 40.11613, "lng": -88.20952}, {"slug": "warrenville-illinois-rte-59", "city": "Warrenville", "state": "IL", "addr": "3S525 IL-59", "lat": 41.8174, "lng": -88.204}, {"slug": "washington-il-n-cummings-ln", "city": "Washington", "state": "IL", "addr": "115 N Cummings Ln", "lat": 40.70632, "lng": -89.44502}, {"slug": "waukegan-il-s-waukegan-rd", "city": "Waukegan", "state": "IL", "addr": "850 S Waukegan Rd", "lat": 42.34418, "lng": -87.89585}, {"slug": "wheaton-il-roosevelt-rd", "city": "Wheaton", "state": "IL", "addr": "908 E Roosevelt Rd", "lat": 41.85863, "lng": -88.09339}, {"slug": "winnebago", "city": "Winnebago", "state": "IL", "addr": "807 Cannell-Puri Dr", "lat": 42.279, "lng": -89.24237}, {"slug": "woodstock", "city": "Woodstock", "state": "IL", "addr": "1620 W. Lake Shore Drive", "lat": 42.29073, "lng": -88.41626}, {"slug": "wrigleyville-il-w-addison", "city": "Wrigleyville", "state": "IL", "addr": "1111 W Addison St", "lat": 41.94689, "lng": -87.65752}, {"slug": "yorkville", "city": "Yorkville", "state": "IL", "addr": "1745 Marketview Drive", "lat": 41.66328, "lng": -88.44149}, {"slug": "zion", "city": "Zion", "state": "IL", "addr": "3335 Sheridan Road", "lat": 42.43376, "lng": -87.8251}, {"slug": "anderson", "city": "Anderson", "state": "IN", "addr": "6386 S. Scatterfield Road", "lat": 40.05087, "lng": -85.65231}, {"slug": "angola-in-wayne", "city": "Angola", "state": "IN", "addr": "2207 N Wayne St", "lat": 41.66195, "lng": -85.00015}, {"slug": "auburn-in-w-7th-st", "city": "Auburn", "state": "IN", "addr": "121 Touring Dr", "lat": 41.36611, "lng": -85.07984}, {"slug": "avon-in-east-us-hwy-36", "city": "Avon", "state": "IN", "addr": "7649 US Hwy 36", "lat": 39.76238, "lng": -86.38757}, {"slug": "bedford-in-john-williams-blvd", "city": "Bedford", "state": "IN", "addr": "3150 John A Williams Blvd", "lat": 38.86777, "lng": -86.51226}, {"slug": "indianapolis-in-emerson-ave", "city": "Beech Grove", "state": "IN", "addr": "5115 Shear Ave", "lat": 39.69791, "lng": -86.08171}, {"slug": "bloomington-in-w-3rd-st", "city": "Bloomington", "state": "IN", "addr": "1918 W 3rd St", "lat": 39.16499, "lng": -86.55983}, {"slug": "westfield-in-gray-rd", "city": "Bridgewater", "state": "IN", "addr": "14667 Gray Rd", "lat": 40.00159, "lng": -86.09049}, {"slug": "brownsburg-in-green-st", "city": "Brownsburg", "state": "IN", "addr": "1225 N Green St", "lat": 39.86021, "lng": -86.39148}, {"slug": "carmel-in-carmel-dr", "city": "Carmel", "state": "IN", "addr": "431 E Carmel Dr", "lat": 39.9615, "lng": -86.119}, {"slug": "cedar-lake-in-w-133rd-ave", "city": "Cedar Lake", "state": "IN", "addr": "9717 W 133rd Ave", "lat": 41.37684, "lng": -87.45362}, {"slug": "chesterton-in", "city": "Chesterton", "state": "IN", "addr": "3000 Matson Street", "lat": 41.57707, "lng": -87.04475}, {"slug": "columbia-city-in-connexion-way", "city": "Columbia City", "state": "IN", "addr": "1001 W Connexion Way", "lat": 41.17026, "lng": -85.51025}, {"slug": "corydon", "city": "Corydon", "state": "IN", "addr": "240 Federal Drive", "lat": 38.23349, "lng": -86.13259}, {"slug": "crawfordsville", "city": "Crawfordsville", "state": "IN", "addr": "1855 S. US 231", "lat": 40.01183, "lng": -86.90449}, {"slug": "crown-point-in", "city": "Crown Point", "state": "IN", "addr": "1800 E. Summit Street", "lat": 41.42797, "lng": -87.33731}, {"slug": "cumberland-in-e-washington-st", "city": "Cumberland", "state": "IN", "addr": "11315 E Washington St", "lat": 39.77562, "lng": -85.96436}, {"slug": "daleville-walnut-st", "city": "Daleville", "state": "IN", "addr": "8801 S. Walnut St", "lat": 40.11417, "lng": -85.55824}, {"slug": "danville-in-cr-200-e", "city": "Danville", "state": "IN", "addr": "200 S County Rd 200 E", "lat": 39.76059, "lng": -86.48693}, {"slug": "elkhart", "city": "Elkhart", "state": "IN", "addr": "2915 Brittany Ct", "lat": 41.7275, "lng": -85.9726}, {"slug": "evansville", "city": "Evansville", "state": "IN", "addr": "1734 Hirschland Road", "lat": 37.99273, "lng": -87.47326}, {"slug": "evansville-in-w-lloyd-expy", "city": "Evansville", "state": "IN", "addr": "4850 W Lloyd Expy", "lat": 37.97624, "lng": -87.63425}, {"slug": "fishers-in", "city": "Fishers", "state": "IN", "addr": "13691 Olio Road", "lat": 39.9875, "lng": -85.91842}, {"slug": "fort-wayne-in-southtown-crossing", "city": "Fort Wayne", "state": "IN", "addr": "7557 N Southtown Crossing", "lat": 41.01641, "lng": -85.1189}, {"slug": "fort-wayne-in-washington-center", "city": "Fort Wayne", "state": "IN", "addr": "1425 W Washington Center Rd", "lat": 41.13198, "lng": -85.15825}, {"slug": "ft-wayne-in-stellhorn", "city": "Fort Wayne", "state": "IN", "addr": "6026 Stellhorn Road", "lat": 41.11997, "lng": -85.06436}, {"slug": "frankfort-e-wabash-st", "city": "Frankfort", "state": "IN", "addr": "2301 E Wabash St", "lat": 40.27846, "lng": -86.48401}, {"slug": "franklin-in-granville-dr", "city": "Franklin", "state": "IN", "addr": "191 Granville Dr", "lat": 39.4837, "lng": -86.016}, {"slug": "goshen-in", "city": "Goshen", "state": "IN", "addr": "2019 Lincoln Way East", "lat": 41.55993, "lng": -85.79581}, {"slug": "goshen-in-elkhart-rd", "city": "Goshen", "state": "IN", "addr": "2024 Elkhart Rd", "lat": 41.59875, "lng": -85.86349}, {"slug": "granger-in-state-rd", "city": "Granger", "state": "IN", "addr": "13145 S State Rd 23", "lat": 41.7524, "lng": -86.1229}, {"slug": "greenfield-in", "city": "Greenfield", "state": "IN", "addr": "1846 N. State Street", "lat": 39.81162, "lng": -85.77042}, {"slug": "greensburg-in-n-broadway-st", "city": "Greensburg", "state": "IN", "addr": "1735 N Broadway St", "lat": 39.35424, "lng": -85.48566}, {"slug": "greenwood", "city": "Greenwood", "state": "IN", "addr": "320 State Hwy 135", "lat": 39.61, "lng": -86.15927}, {"slug": "greenwood-in-emerson-ave", "city": "Greenwood", "state": "IN", "addr": "1142 N Emerson Ave", "lat": 39.63323, "lng": -86.08339}, {"slug": "hammond-in", "city": "Hammond", "state": "IN", "addr": "7905 Cabela Dr", "lat": 41.56998, "lng": -87.4788}, {"slug": "highland-in", "city": "Highland", "state": "IN", "addr": "3950 Ridge Road", "lat": 41.55109, "lng": -87.43307}, {"slug": "huntington-in-guilford-st", "city": "Huntington", "state": "IN", "addr": "2703 Guilford St", "lat": 40.90062, "lng": -85.50529}, {"slug": "indianapolis-71st", "city": "Indianapolis", "state": "IN", "addr": "5020 W. 71st Street", "lat": 39.88253, "lng": -86.2454}, {"slug": "indianapolis-96th", "city": "Indianapolis", "state": "IN", "addr": "7105 E. 96th Street", "lat": 39.92653, "lng": -86.04331}, {"slug": "indianapolis-in-21-st", "city": "Indianapolis", "state": "IN", "addr": "7010 E 21st St", "lat": 39.79678, "lng": -86.04484}, {"slug": "indianapolis-in-keystone-ave", "city": "Indianapolis", "state": "IN", "addr": "6111 N Keystone Ave", "lat": 39.86625, "lng": -86.1216}, {"slug": "indianapolis-in-rockville-rd", "city": "Indianapolis", "state": "IN", "addr": "8232 Country Village Dr", "lat": 39.76348, "lng": -86.30613}, {"slug": "indianapolis-in-s-east-st", "city": "Indianapolis", "state": "IN", "addr": "3805 S East St", "lat": 39.7113, "lng": -86.14839}, {"slug": "indianapolis-kentucky", "city": "Indianapolis", "state": "IN", "addr": "4701 Kentucky Avenue", "lat": 39.69982, "lng": -86.26294}, {"slug": "jasper-in-newton-st", "city": "Jasper", "state": "IN", "addr": "1907 N Newton St", "lat": 38.40487, "lng": -86.93726}, {"slug": "jeffersonville-in", "city": "Jeffersonville", "state": "IN", "addr": "1555 Veterans Parkway", "lat": 38.32957, "lng": -85.7451}, {"slug": "jeffersonville-in-e-10th-st", "city": "Jeffersonville", "state": "IN", "addr": "3525 E 10th St", "lat": 38.33393, "lng": -85.70985}, {"slug": "kokomo", "city": "Kokomo", "state": "IN", "addr": "101 Pipeline Way", "lat": 40.43539, "lng": -86.128}, {"slug": "la-porte-in-pine-lake-ave", "city": "La Porte", "state": "IN", "addr": "233 Pine Lake Ave", "lat": 41.61814, "lng": -86.73398}, {"slug": "lafayette", "city": "Lafayette", "state": "IN", "addr": "340 N. Creasy Lane", "lat": 40.421, "lng": -86.84014}, {"slug": "lawrence-in", "city": "Lawrence", "state": "IN", "addr": "5525 N. Post Road", "lat": 39.85422, "lng": -86.00956}, {"slug": "lebanon-indiana-lebanon-st", "city": "Lebanon", "state": "IN", "addr": "2454 N Lebanon St", "lat": 40.07201, "lng": -86.47466}, {"slug": "logansport-in-market-st", "city": "Logansport", "state": "IN", "addr": "3923 E Market St", "lat": 40.75669, "lng": -86.31305}, {"slug": "madison-in-franks-dr", "city": "Madison", "state": "IN", "addr": "2481 Franks Dr", "lat": 38.77685, "lng": -85.37967}, {"slug": "martinsville-in-prather-dr", "city": "Martinsville", "state": "IN", "addr": "500 Prather Dr", "lat": 39.41352, "lng": -86.42281}, {"slug": "mccordsville-in-broadway", "city": "McCordsville", "state": "IN", "addr": "6036 W Broadway", "lat": 39.8962, "lng": -85.91966}, {"slug": "merrillville", "city": "Merrillville", "state": "IN", "addr": "1579 East 79th Avenue", "lat": 41.47345, "lng": -87.31756}, {"slug": "mishawaka", "city": "Mishawaka", "state": "IN", "addr": "5520 N. Main Street", "lat": 41.71097, "lng": -86.17888}, {"slug": "mishawaka-in-mckinley-hwy", "city": "Mishawaka", "state": "IN", "addr": "12561 McKinley Hwy", "lat": 41.68499, "lng": -86.11092}, {"slug": "mooresville-in-s-indiana-st", "city": "Mooresville", "state": "IN", "addr": "560 S Indiana Street", "lat": 39.60397, "lng": -86.37587}, {"slug": "muncie-in", "city": "Muncie", "state": "IN", "addr": "1312 W. McGalliard Rd", "lat": 40.21934, "lng": -85.40137}, {"slug": "new-castle-in-memorial", "city": "New Castle", "state": "IN", "addr": "605 S Memorial Dr", "lat": 39.92594, "lng": -85.38268}, {"slug": "new-haven-in-state-rd-930", "city": "New Haven", "state": "IN", "addr": "6244 State Road 930", "lat": 41.06862, "lng": -85.05946}, {"slug": "newburgh-in-highpointe-dr", "city": "Newburgh", "state": "IN", "addr": "8970 High Pointe Dr", "lat": 37.97957, "lng": -87.41274}, {"slug": "noblesville", "city": "Noblesville", "state": "IN", "addr": "557 Westfield Road", "lat": 40.04646, "lng": -86.02598}, {"slug": "plainfield", "city": "Plainfield", "state": "IN", "addr": "170 S. Perry Road", "lat": 39.71621, "lng": -86.35754}, {"slug": "plymouth-in-michigan-st", "city": "Plymouth", "state": "IN", "addr": "2100 N Michigan St", "lat": 41.35941, "lng": -86.31087}, {"slug": "portage-in", "city": "Portage", "state": "IN", "addr": "6139 US Hwy 6", "lat": 41.54993, "lng": -87.17744}, {"slug": "portage-in-olmstead-dr", "city": "Portage", "state": "IN", "addr": "1515 Olmstead Dr", "lat": 41.60644, "lng": -87.17114}, {"slug": "richmond-in-chester-blvd", "city": "Richmond", "state": "IN", "addr": "2110 Chester Blvd", "lat": 39.8617, "lng": -84.8896}, {"slug": "richmond-in-commerce-rd", "city": "Richmond", "state": "IN", "addr": "401 Commerce Rd", "lat": 39.8334, "lng": -84.8231}, {"slug": "schererville", "city": "Schererville", "state": "IN", "addr": "980 West Lincoln Hwy", "lat": 41.49125, "lng": -87.47505}, {"slug": "seymour-in-sandy-creek", "city": "Seymour", "state": "IN", "addr": "203 N Sandy Creek Dr", "lat": 38.95935, "lng": -85.84795}, {"slug": "shelbyville-in-morristown-rd", "city": "Shelbyville", "state": "IN", "addr": "1930 N Morristown Rd", "lat": 39.55407, "lng": -85.77445}, {"slug": "south-bend-in-sr-933", "city": "South Bend", "state": "IN", "addr": "52733 SR 933", "lat": 41.7264, "lng": -86.2511}, {"slug": "st-johns-indiana", "city": "St. John", "state": "IN", "addr": "9845 Wicker Ave", "lat": 41.44009, "lng": -87.46937}, {"slug": "terre-haute-in-south-street-rd", "city": "Terre Haute", "state": "IN", "addr": "5530 E New Margaret Dr", "lat": 39.4428, "lng": -87.3323}, {"slug": "terre-haute-s-us-hwy", "city": "Terre Haute", "state": "IN", "addr": "4141 South US HWY 41", "lat": 39.41803, "lng": -87.41704}, {"slug": "valparaiso", "city": "Valparaiso", "state": "IN", "addr": "2101 LaPorte Ave.", "lat": 41.46758, "lng": -87.03555}, {"slug": "valparaiso-in-thornapple-way", "city": "Valparaiso", "state": "IN", "addr": "852 Thornapple Way", "lat": 41.46047, "lng": -87.08344}, {"slug": "vincennes-in-executive-blvd", "city": "Vincennes", "state": "IN", "addr": "7 Executive Blvd", "lat": 38.6949, "lng": -87.49743}, {"slug": "wabash", "city": "Wabash", "state": "IN", "addr": "1321 North Cass Street", "lat": 40.8155, "lng": -85.83585}, {"slug": "warsaw", "city": "Warsaw", "state": "IN", "addr": "852 N Parker Street", "lat": 41.24668, "lng": -85.82195}, {"slug": "warsaw-in-jalynn-st", "city": "Warsaw", "state": "IN", "addr": "2455 Jalynn St", "lat": 41.26971, "lng": -85.85366}, {"slug": "west-lafayette-in-sachem-ct", "city": "West Lafayette", "state": "IN", "addr": "3075 Sachem Ct S", "lat": 40.46191, "lng": -86.93531}, {"slug": "westfield-in-sun-park-dr", "city": "Westfield", "state": "IN", "addr": "17651 Sun Park Drive", "lat": 40.0433, "lng": -86.13958}, {"slug": "whiteland-in-us-31-s", "city": "Whiteland", "state": "IN", "addr": "179 US 31 S", "lat": 39.54733, "lng": -86.08515}, {"slug": "whitestown-in-mills-dr", "city": "Whitestown", "state": "IN", "addr": "6292 Mills Dr", "lat": 39.9505, "lng": -86.3488}, {"slug": "zionsville-in-us-hwy-421", "city": "Zionsville", "state": "IN", "addr": "3263 S US 421", "lat": 39.99416, "lng": -86.2618}, {"slug": "derby-ks-n-rock-rd", "city": "Derby", "state": "KS", "addr": "2925 N Rock Rd", "lat": 37.57962, "lng": -97.24506}, {"slug": "gardner-ks-gardner-rd", "city": "Gardner", "state": "KS", "addr": "18970 Gardner Rd", "lat": 38.7846, "lng": -94.928}, {"slug": "kansas-city-ks", "city": "Kansas City", "state": "KS", "addr": "1925 Prairie Crossing", "lat": 39.12805, "lng": -94.8206}, {"slug": "lawrence-ks", "city": "Lawrence", "state": "KS", "addr": "2111 W 33rd Street", "lat": 38.92398, "lng": -95.26125}, {"slug": "leavenworth-ks-eisenhower-rd", "city": "Leavenworth", "state": "KS", "addr": "600 Eisenhower Rd", "lat": 39.26744, "lng": -94.91461}, {"slug": "87th-st-pkwy-lenexa-ks", "city": "Lenexa", "state": "KS", "addr": "15911 W 87th St Pkwy", "lat": 38.9705, "lng": -94.7709}, {"slug": "manhattan-ks-mccall-rd", "city": "Manhattan", "state": "KS", "addr": "529 McCall Rd", "lat": 39.19011, "lng": -96.54885}, {"slug": "mission-ks", "city": "Mission", "state": "KS", "addr": "6005 Metcalf Avenue", "lat": 39.02017, "lng": -94.66721}, {"slug": "olathe", "city": "Olathe", "state": "KS", "addr": "18685 W. 151st Street", "lat": 38.85428, "lng": -94.80334}, {"slug": "olathe-ks-s-mur-len-rd", "city": "Olathe", "state": "KS", "addr": "13515 South Mur-Len Rd", "lat": 38.88225, "lng": -94.77892}, {"slug": "overland-park", "city": "Overland Park", "state": "KS", "addr": "8600 West 135th Street", "lat": 38.88448, "lng": -94.68488}, {"slug": "topeka-ks-wanamaker-rd", "city": "Topeka", "state": "KS", "addr": "1035 SW Wanamaker Rd", "lat": 39.04856, "lng": -95.76227}, {"slug": "wichita-ks-n-maize-rd", "city": "Wichita", "state": "KS", "addr": "3220 N Maize Rd", "lat": 37.74108, "lng": -97.46173}, {"slug": "wichita-ks-n-rock-rd", "city": "Wichita", "state": "KS", "addr": "3620 N Rock Rd", "lat": 37.74939, "lng": -97.24424}, {"slug": "bowling-green", "city": "Bowling Green", "state": "KY", "addr": "4903 Scottsville Road", "lat": 36.92838, "lng": -86.41284}, {"slug": "elizabethtown-ky-dixie-ave", "city": "Elizabethtown", "state": "KY", "addr": "1541 N Dixie Ave", "lat": 37.727, "lng": -85.8829}, {"slug": "elizabethtown-ky-n-mulberry-st", "city": "Elizabethtown", "state": "KY", "addr": "121 The Loop", "lat": 37.71435, "lng": -85.83118}, {"slug": "florence", "city": "Florence", "state": "KY", "addr": "8554 US Highway 42", "lat": 38.9734, "lng": -84.66278}, {"slug": "georgetown-ky-cherry-blossom", "city": "Georgetown", "state": "KY", "addr": "1450 Cherry Blossom Way", "lat": 38.22139, "lng": -84.53967}, {"slug": "lexington-hamburg-place", "city": "Lexington", "state": "KY", "addr": "2161 Paul Jones Way", "lat": 38.02066, "lng": -84.42161}, {"slug": "lexington-meijer-way", "city": "Lexington", "state": "KY", "addr": "360 Meijer Way", "lat": 37.99436, "lng": -84.53152}, {"slug": "louisville-hurstbourne", "city": "Louisville", "state": "KY", "addr": "4630 S Hurstbourne Pkwy", "lat": 38.18379, "lng": -85.60757}, {"slug": "louisville-interchange", "city": "Louisville", "state": "KY", "addr": "11801 Interchange Drive", "lat": 38.09576, "lng": -85.6721}, {"slug": "murray", "city": "Murray", "state": "KY", "addr": "818 N 12th Street", "lat": 36.62705, "lng": -88.31318}, {"slug": "nicholasville-ky", "city": "Nicholasville", "state": "KY", "addr": "961 North Main Street", "lat": 37.89647, "lng": -84.56694}, {"slug": "owensboro", "city": "Owensboro", "state": "KY", "addr": "3020 Highland Pointe Drive", "lat": 37.75534, "lng": -87.06818}, {"slug": "paducah-ky-old-hwy-60", "city": "Paducah", "state": "KY", "addr": "5450 Old Hwy 60 W", "lat": 37.07105, "lng": -88.70381}, {"slug": "richmond", "city": "Richmond", "state": "KY", "addr": "2012 Lantern Ridge Drive", "lat": 37.73695, "lng": -84.3307}, {"slug": "simpsonville-ky", "city": "Simpsonville", "state": "KY", "addr": "1199 Buck Creek Rd", "lat": 38.20454, "lng": -85.34905}, {"slug": "somerset", "city": "Somerset", "state": "KY", "addr": "711 S HWY 27", "lat": 37.08412, "lng": -84.61768}, {"slug": "adrian", "city": "Adrian", "state": "MI", "addr": "1360 South Main Street", "lat": 41.87901, "lng": -84.04375}, {"slug": "allen-park-mi-southfield-rd", "city": "Allen Park", "state": "MI", "addr": "15655 Southfield Rd", "lat": 42.25932, "lng": -83.20922}, {"slug": "allendale-mi-lake-michigan-dr", "city": "Allendale", "state": "MI", "addr": "5128 Lake Michigan Dr NW", "lat": 42.97183, "lng": -85.91286}, {"slug": "alma-mi-n-alger-rd", "city": "Alma", "state": "MI", "addr": "7520 N Alger Rd", "lat": 43.40114, "lng": -84.66599}, {"slug": "alpena", "city": "Alpena", "state": "MI", "addr": "1061 M32 West", "lat": 45.06108, "lng": -83.47286}, {"slug": "ann-arbor", "city": "Ann Arbor", "state": "MI", "addr": "5910 Jackson Road", "lat": 42.29035, "lng": -83.84661}, {"slug": "ann-arbor-mi-lohr-rd", "city": "Ann Arbor", "state": "MI", "addr": "3015 Lohr Rd", "lat": 42.24204, "lng": -83.76456}, {"slug": "battle-creek", "city": "Battle Creek", "state": "MI", "addr": "5074 Beckley Rd.", "lat": 42.2606, "lng": -85.19686}, {"slug": "bay-city-mi-wilder-rd", "city": "Bay City", "state": "MI", "addr": "2910 E Wilder Rd", "lat": 43.6235, "lng": -83.9352}, {"slug": "belleville", "city": "Belleville", "state": "MI", "addr": "11001 Belleville Road", "lat": 42.22201, "lng": -83.48397}, {"slug": "big-rapids-mi-waldron-way", "city": "Big Rapids", "state": "MI", "addr": "15295 Waldron Way", "lat": 43.68845, "lng": -85.51463}, {"slug": "birch-run", "city": "Birch Run", "state": "MI", "addr": "8551 Main Street", "lat": 43.25082, "lng": -83.78311}, {"slug": "brighton-mi-green-oak-village", "city": "Brighton", "state": "MI", "addr": "6830 Whitmore Lake Rd", "lat": 42.50336, "lng": -83.75934}, {"slug": "byron-center-84th-st", "city": "Byron Center", "state": "MI", "addr": "500 84th St SW", "lat": 42.81153, "lng": -85.67654}, {"slug": "cadillac", "city": "Cadillac", "state": "MI", "addr": "8645 E 34th Road", "lat": 44.28174, "lng": -85.40389}, {"slug": "caledonia-mi-broadmoor", "city": "Caledonia", "state": "MI", "addr": "6697 Broadmoor Ave", "lat": 42.84226, "lng": -85.53323}, {"slug": "canton-mi-ford-rd", "city": "Canton", "state": "MI", "addr": "45275 Ford Rd", "lat": 42.32071, "lng": -83.48608}, {"slug": "cedar-springs-mi-white-creek-ave", "city": "Cedar Springs", "state": "MI", "addr": "13960 White Creek Ave", "lat": 43.21867, "lng": -85.57056}, {"slug": "charlevoix-mi-bridge-st", "city": "Charlevoix", "state": "MI", "addr": "1410 Bridge Street", "lat": 45.30596, "lng": -85.25854}, {"slug": "charlotte-lansing-st-michigan", "city": "Charlotte", "state": "MI", "addr": "524 Lansing St", "lat": 42.5709, "lng": -84.8242}, {"slug": "chelsea-mi", "city": "Chelsea", "state": "MI", "addr": "1610 S Main St", "lat": 42.2984, "lng": -84.0256}, {"slug": "chesterfield-mi-marketplace-blvd", "city": "Chesterfield", "state": "MI", "addr": "45160 Marketplace Blvd", "lat": 42.63193, "lng": -82.85349}, {"slug": "clare-mi-clare-ave", "city": "Clare", "state": "MI", "addr": "10401 S Clare Ave", "lat": 43.83771, "lng": -84.76734}, {"slug": "clarkston", "city": "Clarkston", "state": "MI", "addr": "6910 Sashabaw Rd", "lat": 42.73978, "lng": -83.37894}, {"slug": "clawson-mi-w-maple-rd", "city": "Clawson", "state": "MI", "addr": "1331 W Maple Rd", "lat": 42.54748, "lng": -83.16541}, {"slug": "coldwater-mi", "city": "Coldwater", "state": "MI", "addr": "436 E. Chicago Street", "lat": 41.93697, "lng": -84.98215}, {"slug": "commerce-charter-twp-mi", "city": "Commerce Charter Twp", "state": "MI", "addr": "485 Haggerty Rd", "lat": 42.53353, "lng": -83.43864}, {"slug": "davison-mi-court-st", "city": "Davison", "state": "MI", "addr": "7500 E Court St", "lat": 43.0193, "lng": -83.5569}, {"slug": "detroit-mi-mack-ave", "city": "Detroit", "state": "MI", "addr": "18845 Mack Ave", "lat": 42.41569, "lng": -82.91161}, {"slug": "dewitt-mi-herbison", "city": "Dewitt", "state": "MI", "addr": "1030 W Herbison Rd", "lat": 42.8279, "lng": -84.5445}, {"slug": "dundee-mi-tecumseh-rd", "city": "Dundee", "state": "MI", "addr": "16495 Tecumseh Rd", "lat": 41.96049, "lng": -83.6815}, {"slug": "escanaba", "city": "Escanaba", "state": "MI", "addr": "605 N. Lincoln Road", "lat": 45.75266, "lng": -87.07809}, {"slug": "fenton-mi", "city": "Fenton", "state": "MI", "addr": "3202 Owen Rd", "lat": 42.79035, "lng": -83.7339}, {"slug": "flint-mi-miller-rd", "city": "Flint", "state": "MI", "addr": "4034 Miller Rd", "lat": 42.98349, "lng": -83.75393}, {"slug": "gratiot-mi-24th-ave", "city": "Fort Gratiot", "state": "MI", "addr": "4280 24th Ave", "lat": 43.0336, "lng": -82.4558}, {"slug": "gaylord", "city": "Gaylord", "state": "MI", "addr": "1397 West Main Street", "lat": 45.02713, "lng": -84.70152}, {"slug": "grand-blanc-mi", "city": "Grand Blanc", "state": "MI", "addr": "9090 Holly Rd", "lat": 42.89921, "lng": -83.63173}, {"slug": "greenville-mi-washington", "city": "Greenville", "state": "MI", "addr": "1829 W Washington St", "lat": 43.17662, "lng": -85.28345}, {"slug": "hartland-mi-highland-rd", "city": "Hartland", "state": "MI", "addr": "10855 Highland Rd", "lat": 42.63528, "lng": -83.74015}, {"slug": "hastings-mi-green-st", "city": "Hastings", "state": "MI", "addr": "1600 W Green St", "lat": 42.64629, "lng": -85.31818}, {"slug": "holland", "city": "Holland", "state": "MI", "addr": "3035 West Shore Drive", "lat": 42.82365, "lng": -86.09213}, {"slug": "holland-mi-e-16th-st", "city": "Holland", "state": "MI", "addr": "581 E 16th Street", "lat": 42.78358, "lng": -86.08202}, {"slug": "houghton-mi", "city": "Houghton", "state": "MI", "addr": "1001 W. Sharon Ave", "lat": 47.1129, "lng": -88.58987}, {"slug": "howell-mi-grand-river-ave", "city": "Howell", "state": "MI", "addr": "3900 E Grand River Ave", "lat": 42.58678, "lng": -83.87561}, {"slug": "hudsonville-mi-32nd-ave", "city": "Hudsonville", "state": "MI", "addr": "3915 32nd Ave", "lat": 42.8379, "lng": -85.8624}, {"slug": "ionia-mi-state-rd", "city": "Ionia", "state": "MI", "addr": "2598 S State Rd", "lat": 42.9508, "lng": -85.0754}, {"slug": "iron-mountain-mi-stephenson-ave", "city": "Iron Mountain", "state": "MI", "addr": "2015 S. Stephenson Ave.", "lat": 45.81019, "lng": -88.03547}, {"slug": "jackson-mi", "city": "Jackson", "state": "MI", "addr": "3471 O'Neill Drive", "lat": 42.26627, "lng": -84.45511}, {"slug": "jenison", "city": "Jenison", "state": "MI", "addr": "7393 Cottonwood Drive", "lat": 42.90328, "lng": -85.79338}, {"slug": "kalamazoo", "city": "Kalamazoo", "state": "MI", "addr": "5143 S. 9th Street", "lat": 42.2433, "lng": -85.67693}, {"slug": "kalamazoo-gull", "city": "Kalamazoo", "state": "MI", "addr": "6097 Gull Road", "lat": 42.32943, "lng": -85.51064}, {"slug": "lake-orion", "city": "Lake Orion", "state": "MI", "addr": "4963 Interpark Drive North", "lat": 42.70955, "lng": -83.24165}, {"slug": "lansing-mi-pennsylvania-ave", "city": "Lansing", "state": "MI", "addr": "6280 S Pennsylvania Ave", "lat": 42.66663, "lng": -84.53867}, {"slug": "lansing-mi-towne-centre-blvd", "city": "Lansing", "state": "MI", "addr": "3115 Towne Centre Blvd", "lat": 42.76488, "lng": -84.51826}, {"slug": "lansing-saginaw", "city": "Lansing", "state": "MI", "addr": "8488 W. Saginaw Hwy", "lat": 42.74166, "lng": -84.67769}, {"slug": "lapeer-mi-west-st", "city": "Lapeer", "state": "MI", "addr": "840 West St", "lat": 43.0401, "lng": -83.3227}, {"slug": "livonia-mi", "city": "Livonia", "state": "MI", "addr": "13030 Middlebelt Road", "lat": 42.38002, "lng": -83.33111}, {"slug": "lowell-mi-w-main-st", "city": "Lowell", "state": "MI", "addr": "1245 W Main St", "lat": 42.93202, "lng": -85.35318}, {"slug": "ludington-mi-us-10", "city": "Ludington", "state": "MI", "addr": "5089 W US 10", "lat": 43.95526, "lng": -86.40653}, {"slug": "madison-heights", "city": "Madison Heights", "state": "MI", "addr": "700 West Twelve Mile Rd", "lat": 42.50499, "lng": -83.11331}, {"slug": "manistee-twp-mi-parkdale-ave", "city": "Manistee Twp", "state": "MI", "addr": "492 E Parkdale Ave", "lat": 44.2699, "lng": -86.2924}, {"slug": "marquette", "city": "Marquette", "state": "MI", "addr": "3033 Hwy. 41 West", "lat": 46.54881, "lng": -87.454}, {"slug": "marysville-mi-range-rd", "city": "Marysville", "state": "MI", "addr": "215 S Range Rd", "lat": 42.90746, "lng": -82.49913}, {"slug": "midland-mi", "city": "Midland", "state": "MI", "addr": "7320 Eastman Avenue", "lat": 43.66361, "lng": -84.24554}, {"slug": "monroe-mi-telegraph", "city": "Monroe", "state": "MI", "addr": "1899 N Telegraph Rd", "lat": 41.94814, "lng": -83.40157}, {"slug": "mt-pleasant", "city": "Mt. Pleasant", "state": "MI", "addr": "1021 East Pickard Street", "lat": 43.61254, "lng": -84.76501}, {"slug": "muskegon-mi-independence-drive", "city": "Muskegon", "state": "MI", "addr": "1776 Independence Dr", "lat": 43.15828, "lng": -86.20188}, {"slug": "niles-mi-s-11th-st", "city": "Niles", "state": "MI", "addr": "1420 S 11th St", "lat": 41.8115, "lng": -86.2487}, {"slug": "muskegon-mi-n-getty-st", "city": "North Muskegon", "state": "MI", "addr": "1710 N Getty St", "lat": 43.28362, "lng": -86.22288}, {"slug": "novi-mi-novi-rd", "city": "Novi", "state": "MI", "addr": "27767 Novi Rd", "lat": 42.49144, "lng": -83.47694}, {"slug": "okemos", "city": "Okemos", "state": "MI", "addr": "5140 Times Square Drive", "lat": 42.73054, "lng": -84.41031}, {"slug": "okemos-mi-okemos-rd", "city": "Okemos", "state": "MI", "addr": "3440 Okemos Rd", "lat": 42.68038, "lng": -84.43195}, {"slug": "orion-twp-grand-ave", "city": "Orion Twp", "state": "MI", "addr": "4979 Grand Ave", "lat": 42.7081, "lng": -83.2945}, {"slug": "otsego-mi-allegan", "city": "Otsego", "state": "MI", "addr": "1369 Allegan Street", "lat": 42.45047, "lng": -85.67804}, {"slug": "owosso-mi-e-main-st", "city": "Owosso", "state": "MI", "addr": "2355 E Main St", "lat": 42.99892, "lng": -84.11992}, {"slug": "oxford-mi-lapeer-rd", "city": "Oxford", "state": "MI", "addr": "525 N Lapeer Rd", "lat": 42.83218, "lng": -83.27113}, {"slug": "paw-paw-mi-co-rd-665", "city": "Paw Paw", "state": "MI", "addr": "277 Co Rd 665", "lat": 42.204, "lng": -85.8881}, {"slug": "petoskey-mi-31-n", "city": "Petoskey", "state": "MI", "addr": "1264 US 31 N", "lat": 45.38877, "lng": -84.91405}, {"slug": "portage-mi", "city": "Portage", "state": "MI", "addr": "7262 S. Westnedge Ave.", "lat": 42.21158, "lng": -85.58996}, {"slug": "rochester-hills-mi-auburn-rd", "city": "Rochester Hills", "state": "MI", "addr": "92 E Auburn Rd", "lat": 42.6358, "lng": -83.13004}, {"slug": "10-mile-rd-rockford-mi", "city": "Rockford", "state": "MI", "addr": "2993 10 Mile Road NE", "lat": 43.11762, "lng": -85.59632}, {"slug": "roseville", "city": "Roseville", "state": "MI", "addr": "30820 Little Mack Ave", "lat": 42.52296, "lng": -82.90831}, {"slug": "saginaw", "city": "Saginaw", "state": "MI", "addr": "5369 Bay Road", "lat": 43.48521, "lng": -83.97555}, {"slug": "saginaw-mi-gratiot", "city": "Saginaw", "state": "MI", "addr": "8100 Gratiot Road", "lat": 43.41642, "lng": -84.07343}, {"slug": "sault-ste-marie-mi-i-75-business-spur", "city": "Sault Ste. Marie", "state": "MI", "addr": "3190 I-75 Business Spur", "lat": 46.47218, "lng": -84.36242}, {"slug": "shelby-twp-mi", "city": "Shelby Township", "state": "MI", "addr": "15029 23 Mile Road", "lat": 42.67188, "lng": -82.97724}, {"slug": "south-haven-mi-cr-388", "city": "South Haven", "state": "MI", "addr": "04287 Cecilia Drive", "lat": 42.4033, "lng": -86.2473}, {"slug": "south-lyon-mi-pontiac", "city": "South Lyon", "state": "MI", "addr": "22700 Pontiac Trail", "lat": 42.4487, "lng": -83.6498}, {"slug": "southfield-mi-southfield-rd", "city": "Southfield", "state": "MI", "addr": "29970 Southfield Rd", "lat": 42.50994, "lng": -83.22236}, {"slug": "southfield-mi-telegraph-rd", "city": "Southfield", "state": "MI", "addr": "29785 Telegraph Rd", "lat": 42.5061, "lng": -83.28623}, {"slug": "sterling-heights-mi-van-dyke", "city": "Sterling Heights", "state": "MI", "addr": "36480 Van Dyke Ave", "lat": 42.562, "lng": -83.02788}, {"slug": "stevensville", "city": "Stevensville", "state": "MI", "addr": "4537 Red Arrow Hwy", "lat": 42.03569, "lng": -86.51331}, {"slug": "sturgis-mi", "city": "Sturgis", "state": "MI", "addr": "830 S. Centerville Rd.", "lat": 41.79014, "lng": -85.42773}, {"slug": "taylor", "city": "Taylor", "state": "MI", "addr": "14800 Racho Road", "lat": 42.19905, "lng": -83.2491}, {"slug": "three-rivers-mi-us-131", "city": "Three Rivers", "state": "MI", "addr": "610 S US 131", "lat": 41.93647, "lng": -85.6524}, {"slug": "traverse-city", "city": "Traverse City", "state": "MI", "addr": "101 US Highway 31 S", "lat": 44.68505, "lng": -85.65522}, {"slug": "traverse-city-munson", "city": "Traverse City", "state": "MI", "addr": "876 Munson Avenue", "lat": 44.74962, "lng": -85.56165}, {"slug": "walker-mi-wilson-ave", "city": "Walker", "state": "MI", "addr": "330 Wilson Ave", "lat": 42.97034, "lng": -85.77581}, {"slug": "washington-twp-van-dyke", "city": "Washington Twp", "state": "MI", "addr": "66227 Van Dyke Ave", "lat": 42.78136, "lng": -83.01413}, {"slug": "waterford-mi-highland-rd", "city": "Waterford", "state": "MI", "addr": "7313 Highland Rd", "lat": 42.66013, "lng": -83.4315}, {"slug": "wayland-mi-superior-st", "city": "Wayland", "state": "MI", "addr": "1180 W Superior St", "lat": 42.67353, "lng": -85.66003}, {"slug": "west-branch-mi-cook-rd", "city": "West Branch", "state": "MI", "addr": "2939 Cook Rd", "lat": 44.25125, "lng": -84.22472}, {"slug": "westland", "city": "Westland", "state": "MI", "addr": "6500 Newburgh Road", "lat": 42.33258, "lng": -83.40827}, {"slug": "white-lake-mi-highland-rd", "city": "White Lake", "state": "MI", "addr": "6075 Highland Rd", "lat": 42.65074, "lng": -83.52819}, {"slug": "whitehall-mi-colby-st", "city": "Whitehall", "state": "MI", "addr": "3141 Colby St", "lat": 43.40856, "lng": -86.32052}, {"slug": "wixom-mi", "city": "Wixom", "state": "MI", "addr": "49169 Alpha Drive", "lat": 42.50121, "lng": -83.53552}, {"slug": "woodhaven-mi-allen-rd", "city": "Woodhaven", "state": "MI", "addr": "22300 Allen Rd", "lat": 42.14542, "lng": -83.22842}, {"slug": "wyoming", "city": "Wyoming", "state": "MI", "addr": "245 54th Street S.W.", "lat": 42.86675, "lng": -85.66976}, {"slug": "ypsilanti-mi-s-huron-st", "city": "Ypsilanti", "state": "MI", "addr": "1410 S Huron St", "lat": 42.22144, "lng": -83.61903}, {"slug": "albertville", "city": "Albertville", "state": "MN", "addr": "11025 61st Street", "lat": 45.23841, "lng": -93.66419}, {"slug": "alexandria", "city": "Alexandria", "state": "MN", "addr": "610 50th Avenue", "lat": 45.84528, "lng": -95.38676}, {"slug": "anoka", "city": "Anoka", "state": "MN", "addr": "800 W. Main Street", "lat": 45.20835, "lng": -93.40788}, {"slug": "apple-valley", "city": "Apple Valley", "state": "MN", "addr": "15225 Galaxie Avenue", "lat": 44.72843, "lng": -93.20818}, {"slug": "austin", "city": "Austin", "state": "MN", "addr": "1800 8th Street NW", "lat": 43.68364, "lng": -92.98439}, {"slug": "baxter", "city": "Baxter", "state": "MN", "addr": "15222 Delwood Drive", "lat": 46.37211, "lng": -94.24393}, {"slug": "bemidji-mn-paul-bunyan", "city": "Bemidji", "state": "MN", "addr": "2200 Paul Bunyan Dr NW", "lat": 47.49521, "lng": -94.91162}, {"slug": "blaine", "city": "Blaine", "state": "MN", "addr": "10550 Baltimore St. NE", "lat": 45.16197, "lng": -93.23402}, {"slug": "blaine-mn-108th-ave-ne", "city": "Blaine", "state": "MN", "addr": "4121 108th Ave NE", "lat": 45.16618, "lng": -93.16634}, {"slug": "bloomington-mn", "city": "Bloomington", "state": "MN", "addr": "7801 Nicollet Ave", "lat": 44.86053, "lng": -93.27788}, {"slug": "brooklyn-center", "city": "Brooklyn Center", "state": "MN", "addr": "6900 Brooklyn Blvd", "lat": 45.08066, "lng": -93.33672}, {"slug": "buffalo", "city": "Buffalo", "state": "MN", "addr": "500 East Hwy 55", "lat": 45.17679, "lng": -93.86724}, {"slug": "cambridge", "city": "Cambridge", "state": "MN", "addr": "105 Opportunity Blvd. N.", "lat": 45.57313, "lng": -93.20461}, {"slug": "champlin", "city": "Champlin", "state": "MN", "addr": "11218 Commerce Dr. N.", "lat": 45.1587, "lng": -93.39267}, {"slug": "chanhassen", "city": "Chanhassen", "state": "MN", "addr": "450 Pond Promenade", "lat": 44.85781, "lng": -93.53242}, {"slug": "chaska", "city": "Chaska", "state": "MN", "addr": "180 Pioneer Trail East", "lat": 44.83026, "lng": -93.6017}, {"slug": "coon-rapids", "city": "Coon Rapids", "state": "MN", "addr": "611 Coon Rapids Blvd.", "lat": 45.1458, "lng": -93.28225}, {"slug": "cottage-grove", "city": "Cottage Grove", "state": "MN", "addr": "7998 Hardwood Ave S.", "lat": 44.83408, "lng": -92.96169}, {"slug": "delano-mn-st-peter-avenue-east", "city": "Delano", "state": "MN", "addr": "888 St Peter Ave E", "lat": 45.0361, "lng": -93.77721}, {"slug": "duluth", "city": "Duluth", "state": "MN", "addr": "1301 Mall Drive", "lat": 46.80215, "lng": -92.15607}, {"slug": "eagan", "city": "Eagan", "state": "MN", "addr": "3445 O'Leary Lane", "lat": 44.83229, "lng": -93.15112}, {"slug": "eden-prairie", "city": "Eden Prairie", "state": "MN", "addr": "920 Prairie Center Dr", "lat": 44.86377, "lng": -93.44291}, {"slug": "elk-river", "city": "Elk River", "state": "MN", "addr": "19475 Evans Street NW", "lat": 45.32536, "lng": -93.56018}, {"slug": "faribault-mn-lyndale-ave", "city": "Faribault", "state": "MN", "addr": "1675 Lyndale Ave N", "lat": 44.30903, "lng": -93.29018}, {"slug": "forest-lake", "city": "Forest Lake", "state": "MN", "addr": "1007 W. Broadway Ave.", "lat": 45.27979, "lng": -92.99664}, {"slug": "golden-valley-mn-7th-ave", "city": "Golden Valley", "state": "MN", "addr": "8845 7th Avenue North", "lat": 44.98545, "lng": -93.39223}, {"slug": "grand-rapids-mn-pokegama-ave", "city": "Grand Rapids", "state": "MN", "addr": "1175 S Pokegama Ave", "lat": 47.21903, "lng": -93.52935}, {"slug": "hastings", "city": "Hastings", "state": "MN", "addr": "1713 Market Boulevard", "lat": 44.73702, "lng": -92.89076}, {"slug": "hutchinson", "city": "Hutchinson", "state": "MN", "addr": "1510 Montreal Street SE", "lat": 44.86675, "lng": -94.37465}, {"slug": "lakeville", "city": "Lakeville", "state": "MN", "addr": "17800 Kenwood Trail", "lat": 44.69072, "lng": -93.28107}, {"slug": "lino-lakes-mn-otter-lake-rd", "city": "Lino Lakes", "state": "MN", "addr": "7103 Otter Lake Rd", "lat": 45.1647, "lng": -93.02775}, {"slug": "little-canada", "city": "Little Canada", "state": "MN", "addr": "2880 Rice Street", "lat": 45.02766, "lng": -93.10567}, {"slug": "mankato", "city": "Mankato", "state": "MN", "addr": "1856 Madison Avenue", "lat": 44.16731, "lng": -93.9533}, {"slug": "maple-grove", "city": "Maple Grove", "state": "MN", "addr": "16380 96th Ave N", "lat": 45.12951, "lng": -93.48856}, {"slug": "maple-grove-mn-70th-way-n", "city": "Maple Grove", "state": "MN", "addr": "18550 70th Way N", "lat": 45.08452, "lng": -93.51624}, {"slug": "marshall", "city": "Marshall", "state": "MN", "addr": "1211 Susan Drive", "lat": 44.43587, "lng": -95.77134}, {"slug": "minnetonka-mn-hwy-7", "city": "Minnetonka", "state": "MN", "addr": "17555 Hwy 7", "lat": 44.91343, "lng": -93.50253}, {"slug": "monticello", "city": "Monticello", "state": "MN", "addr": "9395 State Hwy. 25", "lat": 45.28701, "lng": -93.80579}, {"slug": "navarre", "city": "Navarre", "state": "MN", "addr": "3340 Shoreline Dr", "lat": 44.93515, "lng": -93.60739}, {"slug": "north-mankato", "city": "North Mankato", "state": "MN", "addr": "1680 Commerce Drive", "lat": 44.17986, "lng": -94.03354}, {"slug": "northfield", "city": "Northfield", "state": "MN", "addr": "960 Hwy 3 South", "lat": 44.45014, "lng": -93.17084}, {"slug": "owatonna", "city": "Owatonna", "state": "MN", "addr": "1140 W. Frontage Rd.", "lat": 44.0958, "lng": -93.24886}, {"slug": "plymouth-peony", "city": "Plymouth", "state": "MN", "addr": "4335 Peony Lane", "lat": 45.03456, "lng": -93.50949}, {"slug": "plymouth-quinwood", "city": "Plymouth", "state": "MN", "addr": "6175 Quinwood Lane", "lat": 45.06527, "lng": -93.44018}, {"slug": "princeton-mn-19th-ave-n", "city": "Princeton", "state": "MN", "addr": "200 19th Ave N", "lat": 45.57176, "lng": -93.60007}, {"slug": "prior-lake-mn-credit-river-rd", "city": "Prior Lake", "state": "MN", "addr": "5471 Credit River Rd SE", "lat": 44.70702, "lng": -93.40973}, {"slug": "red-wing", "city": "Red Wing", "state": "MN", "addr": "179 Tyler Road S", "lat": 44.56538, "lng": -92.58481}, {"slug": "rochester-28th", "city": "Rochester", "state": "MN", "addr": "36 28th Street SE", "lat": 43.98042, "lng": -92.46115}, {"slug": "rochester-55th", "city": "Rochester", "state": "MN", "addr": "3380 55th St. NW", "lat": 44.07904, "lng": -92.51205}, {"slug": "rogers", "city": "Rogers", "state": "MN", "addr": "13605 Northdale Boulevard", "lat": 45.20121, "lng": -93.55499}, {"slug": "rosemount-mn-robert-trl", "city": "Rosemount", "state": "MN", "addr": "14755 S Robert Trl", "lat": 44.73525, "lng": -93.12656}, {"slug": "savage", "city": "Savage", "state": "MN", "addr": "4725 Hwy. 13 W.", "lat": 44.77862, "lng": -93.33885}, {"slug": "shakopee", "city": "Shakopee", "state": "MN", "addr": "4058 12th Avenue East", "lat": 44.78468, "lng": -93.46906}, {"slug": "st-anthony", "city": "St. Anthony", "state": "MN", "addr": "4004 Silver Lake Road", "lat": 45.04148, "lng": -93.21896}, {"slug": "st-cloud", "city": "St. Cloud", "state": "MN", "addr": "901 Hwy 10 South", "lat": 45.55784, "lng": -94.13036}, {"slug": "st-paul", "city": "St. Paul", "state": "MN", "addr": "2065 Old Hudson Road", "lat": 44.95208, "lng": -93.01318}, {"slug": "st-paul-university", "city": "St. Paul", "state": "MN", "addr": "1491 University Avenue", "lat": 44.95596, "lng": -93.16343}, {"slug": "stillwater", "city": "Stillwater", "state": "MN", "addr": "1725 Market Drive", "lat": 45.04048, "lng": -92.84}, {"slug": "two-harbors", "city": "Two Harbors", "state": "MN", "addr": "1082 Hwy 61", "lat": 47.02429, "lng": -91.69056}, {"slug": "vadnais-heights", "city": "Vadnais Heights", "state": "MN", "addr": "4485 Centerville Rd.", "lat": 45.0768, "lng": -93.05675}, {"slug": "waconia-mn-hwy-5", "city": "Waconia", "state": "MN", "addr": "10710 10th St", "lat": 44.83926, "lng": -93.79601}, {"slug": "waite-park", "city": "Waite Park", "state": "MN", "addr": "1101 Second Street", "lat": 45.5501, "lng": -94.23076}, {"slug": "west-st-paul", "city": "West St. Paul", "state": "MN", "addr": "125 Marie Avenue East", "lat": 44.89125, "lng": -93.07942}, {"slug": "white-bear-lake-mn-white-bear-ave", "city": "White Bear Lake", "state": "MN", "addr": "3202 White Bear Ave", "lat": 45.03846, "lng": -93.01717}, {"slug": "willmar", "city": "Willmar", "state": "MN", "addr": "202 19th Avenue SE", "lat": 45.10286, "lng": -95.04033}, {"slug": "winona", "city": "Winona", "state": "MN", "addr": "1441 Service Drive", "lat": 44.04713, "lng": -91.67651}, {"slug": "woodbury-mn-woodbury-dr", "city": "Woodbury", "state": "MN", "addr": "520 Woodbury Drive", "lat": 44.94094, "lng": -92.90529}, {"slug": "arnold", "city": "Arnold", "state": "MO", "addr": "123 Richardson Crossing", "lat": 38.41315, "lng": -90.38383}, {"slug": "blue-springs", "city": "Blue Springs", "state": "MO", "addr": "1301 MO-7", "lat": 39.00415, "lng": -94.27344}, {"slug": "branson", "city": "Branson", "state": "MO", "addr": "1309 State Hwy 248", "lat": 36.66325, "lng": -93.23824}, {"slug": "camdenton-mo-e-hwy-54", "city": "Camdenton", "state": "MO", "addr": "785 E US Highway 54", "lat": 38.0163, "lng": -92.7351}, {"slug": "cape-girardeau", "city": "Cape Girardeau", "state": "MO", "addr": "295 North Kingshighway", "lat": 37.31042, "lng": -89.5527}, {"slug": "chesterfield", "city": "Chesterfield", "state": "MO", "addr": "17349 Chesterfield Airport Road", "lat": 38.66883, "lng": -90.60397}, {"slug": "columbia", "city": "Columbia", "state": "MO", "addr": "2520 Broadway Bluffs Drive", "lat": 38.94736, "lng": -92.30051}, {"slug": "columbia-mo-bernadette", "city": "Columbia", "state": "MO", "addr": "2010 Bernadette Dr", "lat": 38.96478, "lng": -92.37074}, {"slug": "crestwood-mo", "city": "Crestwood", "state": "MO", "addr": "10200 Big Bend Blvd", "lat": 38.56736, "lng": -90.39518}, {"slug": "crystal-city-truman-blvd", "city": "Crystal City", "state": "MO", "addr": "200 S Truman Blvd", "lat": 38.21751, "lng": -90.3852}, {"slug": "ellisville-mo-mancheter-rd", "city": "Ellisville", "state": "MO", "addr": "15978 Manchester Rd", "lat": 38.5914, "lng": -90.59069}, {"slug": "eureka", "city": "Eureka", "state": "MO", "addr": "400 Meramec Blvd", "lat": 38.50668, "lng": -90.63376}, {"slug": "farmington", "city": "Farmington", "state": "MO", "addr": "525 W. Karsch Blvd.", "lat": 37.78914, "lng": -90.4281}, {"slug": "fenton-mo", "city": "Fenton", "state": "MO", "addr": "1024 Bowles Ave.", "lat": 38.5245, "lng": -90.47182}, {"slug": "florissant-mo", "city": "Florissant", "state": "MO", "addr": "975 N. US HWY 67", "lat": 38.7997, "lng": -90.3285}, {"slug": "grain-valley-mo-nw-buckner-tarsney-rd", "city": "Grain Valley", "state": "MO", "addr": "1180 NW Buckner Tarsney Rd", "lat": 39.02511, "lng": -94.19823}, {"slug": "harrisonville-mo-rte-291", "city": "Harrisonville", "state": "MO", "addr": "1415 N Rte 291", "lat": 38.664, "lng": -94.3665}, {"slug": "independence-mo", "city": "Independence", "state": "MO", "addr": "4220 S Little Blue Pkwy", "lat": 39.03606, "lng": -94.34361}, {"slug": "jefferson-city", "city": "Jefferson City", "state": "MO", "addr": "1920 Jefferson Street", "lat": 38.55258, "lng": -92.2001},